{ "type": "FeatureCollection",  "features": [

{ "type": "Feature", "geometry": {"type": "Point", "coordinates": [16.261458,63.162497]},
"properties": {
		"name": "Hammarstrand/Krokvåg",
        "alias": "hammarstrand",
		"id": "90",
		"color": "#a6bccb",
		"temperature":"-10"

 }},
  

{ "type": "Feature", "geometry": {"type": "Point", "coordinates": [22.134852,65.617378]},
"properties": {
		"name": "Luleå",
        "alias": "lulea",
		"id": "3",
		"color": "#abc0ce",
		"temperature":"-9"

 }},
  

{ "type": "Feature", "geometry": {"type": "Point", "coordinates": [16.903237,63.451754]},
"properties": {
		"name": "Näsåker",
        "alias": "nasaker",
		"id": "233",
		"color": "#abc0ce",
		"temperature":"-9"

 }},
  

{ "type": "Feature", "geometry": {"type": "Point", "coordinates": [16.6130,63.3276]},
"properties": {
		"name": "Meåstrand",
        "alias": "meastrand",
		"id": "595",
		"color": "#abc0ce",
		"temperature":"-9"

 }},
  

{ "type": "Feature", "geometry": {"type": "Point", "coordinates": [23.123256,65.851130]},
"properties": {
		"name": "Kalix",
        "alias": "kalix",
		"id": "47",
		"color": "#b1c5d1",
		"temperature":"-8"

 }},
  

{ "type": "Feature", "geometry": {"type": "Point", "coordinates": [22.3083,65.8639]},
"properties": {
		"name": "Råneå",
        "alias": "ranea",
		"id": "402",
		"color": "#b1c5d1",
		"temperature":"-8"

 }},
  

{ "type": "Feature", "geometry": {"type": "Point", "coordinates": [15.01950,60.83425]},
"properties": {
		"name": "Leksand/Östanhol",
        "alias": "ostanhol",
		"id": "409",
		"color": "#b1c5d1",
		"temperature":"-8"

 }},
  

{ "type": "Feature", "geometry": {"type": "Point", "coordinates": [21.767547,65.808619]},
"properties": {
		"name": "Boden",
        "alias": "boden",
		"id": "55",
		"color": "#b1c5d1",
		"temperature":"-8"

 }},
  

{ "type": "Feature", "geometry": {"type": "Point", "coordinates": [21.00234722,65.67743056]},
"properties": {
		"name": "Älvsbyn",
        "alias": "alvsbyn",
		"id": "179",
		"color": "#b6c9d3",
		"temperature":"-7"

 }},
  

{ "type": "Feature", "geometry": {"type": "Point", "coordinates": [18.681527,64.57375]},
"properties": {
		"name": "Lycksele",
        "alias": "lycksele",
		"id": "121",
		"color": "#b6c9d3",
		"temperature":"-7"

 }},
  

{ "type": "Feature", "geometry": {"type": "Point", "coordinates": [16.6760,62.4075]},
"properties": {
		"name": "Stöde",
        "alias": "stode",
		"id": "433",
		"color": "#b6c9d3",
		"temperature":"-7"

 }},
  

{ "type": "Feature", "geometry": {"type": "Point", "coordinates": [20.537566,67.849050]},
"properties": {
		"name": "Kiruna/Utsikten",
        "alias": "utsikten",
		"id": "393",
		"color": "#b6c9d3",
		"temperature":"-7"

 }},
  

{ "type": "Feature", "geometry": {"type": "Point", "coordinates": [21.9670,65.4757]},
"properties": {
		"name": "Mörön",
        "alias": "moron",
		"id": "581",
		"color": "#b6c9d3",
		"temperature":"-7"

 }},
  

{ "type": "Feature", "geometry": {"type": "Point", "coordinates": [22.64877,65.91843]},
"properties": {
		"name": "Töre",
        "alias": "tore",
		"id": "432",
		"color": "#b6c9d3",
		"temperature":"-7"

 }},
  

{ "type": "Feature", "geometry": {"type": "Point", "coordinates": [21.84690,65.54998]},
"properties": {
		"name": "Antnäs",
        "alias": "antnas",
		"id": "450",
		"color": "#b6c9d3",
		"temperature":"-7"

 }},
  

{ "type": "Feature", "geometry": {"type": "Point", "coordinates": [19.55155,64.111611]},
"properties": {
		"name": "Hälsinglund",
        "alias": "halsinglund",
		"id": "152",
		"color": "#bbcdd6",
		"temperature":"-6"

 }},
  

{ "type": "Feature", "geometry": {"type": "Point", "coordinates": [19.914602,63.629283]},
"properties": {
		"name": "Hörnefors",
        "alias": "hornefors",
		"id": "117",
		"color": "#bbcdd6",
		"temperature":"-6"

 }},
  

{ "type": "Feature", "geometry": {"type": "Point", "coordinates": [19.661517,64.0403]},
"properties": {
		"name": "Vännäs",
        "alias": "vannas",
		"id": "283",
		"color": "#bbcdd6",
		"temperature":"-6"

 }},
  

{ "type": "Feature", "geometry": {"type": "Point", "coordinates": [14.04038,61.22831]},
"properties": {
		"name": "Älvdalen",
        "alias": "alvdalen",
		"id": "260",
		"color": "#bbcdd6",
		"temperature":"-6"

 }},
  

{ "type": "Feature", "geometry": {"type": "Point", "coordinates": [21.12661,65.34468]},
"properties": {
		"name": "Piteå/Roknäs",
        "alias": "roknas",
		"id": "249",
		"color": "#bbcdd6",
		"temperature":"-6"

 }},
  

{ "type": "Feature", "geometry": {"type": "Point", "coordinates": [20.310762,63.819614]},
"properties": {
		"name": "Umeå",
        "alias": "umea",
		"id": "6",
		"color": "#bbcdd6",
		"temperature":"-6"

 }},
  

{ "type": "Feature", "geometry": {"type": "Point", "coordinates": [15.0118,59.987]},
"properties": {
		"name": "Högfors",
        "alias": "hogfors",
		"id": "253",
		"color": "#bbcdd6",
		"temperature":"-6"

 }},
  

{ "type": "Feature", "geometry": {"type": "Point", "coordinates": [15.3688,60.1510]},
"properties": {
		"name": "Smedjebacken",
        "alias": "smedjebacken",
		"id": "369",
		"color": "#bbcdd6",
		"temperature":"-6"

 }},
  

{ "type": "Feature", "geometry": {"type": "Point", "coordinates": [20.19819,63.80837]},
"properties": {
		"name": "Umeå/Röbäck",
        "alias": "roback",
		"id": "477",
		"color": "#bbcdd6",
		"temperature":"-6"

 }},
  

{ "type": "Feature", "geometry": {"type": "Point", "coordinates": [19.38115,64.94653]},
"properties": {
		"name": "Norsjövallen",
        "alias": "norsjovallen",
		"id": "449",
		"color": "#bbcdd6",
		"temperature":"-6"

 }},
  

{ "type": "Feature", "geometry": {"type": "Point", "coordinates": [20.937317,64.752298]},
"properties": {
		"name": "Skellefteå",
        "alias": "skelleftea",
		"id": "31",
		"color": "#bbcdd6",
		"temperature":"-6"

 }},
  

{ "type": "Feature", "geometry": {"type": "Point", "coordinates": [20.55430,63.90604]},
"properties": {
		"name": "Sävar",
        "alias": "savar",
		"id": "345",
		"color": "#bbcdd6",
		"temperature":"-6"

 }},
  

{ "type": "Feature", "geometry": {"type": "Point", "coordinates": [19.98553,67.75138]},
"properties": {
		"name": "Kiruna/Fjällnäs",
        "alias": "fjellnes",
		"id": "481",
		"color": "#bbcdd6",
		"temperature":"-6"

 }},
  

{ "type": "Feature", "geometry": {"type": "Point", "coordinates": [22.741594,66.072039]},
"properties": {
		"name": "Forsbyn",
        "alias": "forsbyn",
		"id": "462",
		"color": "#bbcdd6",
		"temperature":"-6"

 }},
  

{ "type": "Feature", "geometry": {"type": "Point", "coordinates": [20.95386,65.66892]},
"properties": {
		"name": "Kanisberget",
        "alias": "kanisberget",
		"id": "371",
		"color": "#bbcdd6",
		"temperature":"-6"

 }},
  

{ "type": "Feature", "geometry": {"type": "Point", "coordinates": [18.0978,63.4557]},
"properties": {
		"name": "Örnsköldsvik/Bredbyn",
        "alias": "bredbyn",
		"id": "466",
		"color": "#bbcdd6",
		"temperature":"-6"

 }},
  

{ "type": "Feature", "geometry": {"type": "Point", "coordinates": [15.1488,61.1742]},
"properties": {
		"name": "Furudal",
        "alias": "furudal",
		"id": "582",
		"color": "#bbcdd6",
		"temperature":"-6"

 }},
  

{ "type": "Feature", "geometry": {"type": "Point", "coordinates": [17.1284,65.0957]},
"properties": {
		"name": "Storuman/Centrum",
        "alias": "storuman_c",
		"id": "437",
		"color": "#bbcdd6",
		"temperature":"-6"

 }},
  

{ "type": "Feature", "geometry": {"type": "Point", "coordinates": [17.1075,62.5804]},
"properties": {
		"name": "Indal",
        "alias": "indal",
		"id": "285",
		"color": "#bbcdd6",
		"temperature":"-6"

 }},
  

{ "type": "Feature", "geometry": {"type": "Point", "coordinates": [16.659550,64.623855]},
"properties": {
		"name": "Vilhelmina",
        "alias": "vilhelmina",
		"id": "44",
		"color": "#c1d1d8",
		"temperature":"-5"

 }},
  

{ "type": "Feature", "geometry": {"type": "Point", "coordinates": [17.7405,62.9372]},
"properties": {
		"name": "Kramfors",
        "alias": "kramfors",
		"id": "354",
		"color": "#c1d1d8",
		"temperature":"-5"

 }},
  

{ "type": "Feature", "geometry": {"type": "Point", "coordinates": [17.76591,62.89962]},
"properties": {
		"name": "Fiskja",
        "alias": "fiskja",
		"id": "452",
		"color": "#c1d1d8",
		"temperature":"-5"

 }},
  

{ "type": "Feature", "geometry": {"type": "Point", "coordinates": [19.39578,64.37664]},
"properties": {
		"name": "Strycksele",
        "alias": "strycksele",
		"id": "474",
		"color": "#c1d1d8",
		"temperature":"-5"

 }},
  

{ "type": "Feature", "geometry": {"type": "Point", "coordinates": [15.12085,62.89679]},
"properties": {
		"name": "Revsund",
        "alias": "revsund",
		"id": "591",
		"color": "#c1d1d8",
		"temperature":"-5"

 }},
  

{ "type": "Feature", "geometry": {"type": "Point", "coordinates": [17.26541,62.41763]},
"properties": {
		"name": "Sundsvall/Granloholm",
        "alias": "granloholm",
		"id": "463",
		"color": "#c1d1d8",
		"temperature":"-5"

 }},
  

{ "type": "Feature", "geometry": {"type": "Point", "coordinates": [20.6573,64.5199]},
"properties": {
		"name": "Burträsk",
        "alias": "burtrask",
		"id": "390",
		"color": "#c1d1d8",
		"temperature":"-5"

 }},
  

{ "type": "Feature", "geometry": {"type": "Point", "coordinates": [20.2366,63.8190]},
"properties": {
		"name": "Umeå/Teg",
        "alias": "teg",
		"id": "588",
		"color": "#c1d1d8",
		"temperature":"-5"

 }},
  

{ "type": "Feature", "geometry": {"type": "Point", "coordinates": [20.2304,67.8634]},
"properties": {
		"name": "Kiruna/Centrum",
        "alias": "kiruna",
		"id": "262",
		"color": "#c1d1d8",
		"temperature":"-5"

 }},
  

{ "type": "Feature", "geometry": {"type": "Point", "coordinates": [20.4111,67.8408]},
"properties": {
		"name": "Kiruna/IRF",
        "alias": "irf",
		"id": "25",
		"color": "#c1d1d8",
		"temperature":"-5"

 }},
  

{ "type": "Feature", "geometry": {"type": "Point", "coordinates": [20.99299,64.61311]},
"properties": {
		"name": "Gamla_Falmark",
        "alias": "gamla_falmark",
		"id": "598",
		"color": "#c1d1d8",
		"temperature":"-5"

 }},
  

{ "type": "Feature", "geometry": {"type": "Point", "coordinates": [15.1857,60.1516]},
"properties": {
		"name": "Ludvika/Centrum",
        "alias": "ludvika_c",
		"id": "596",
		"color": "#c1d1d8",
		"temperature":"-5"

 }},
  

{ "type": "Feature", "geometry": {"type": "Point", "coordinates": [21.06531667,67.64705]},
"properties": {
		"name": "Svappavaara",
        "alias": "svappavaara",
		"id": "147",
		"color": "#c1d1d8",
		"temperature":"-5"

 }},
  

{ "type": "Feature", "geometry": {"type": "Point", "coordinates": [20.39268,64.00449]},
"properties": {
		"name": "Bodbyn",
        "alias": "bodbyn",
		"id": "469",
		"color": "#c1d1d8",
		"temperature":"-5"

 }},
  

{ "type": "Feature", "geometry": {"type": "Point", "coordinates": [14.5464,61.0083]},
"properties": {
		"name": "Mora/Skidstadion",
        "alias": "skidstadion",
		"id": "258",
		"color": "#c1d1d8",
		"temperature":"-5"

 }},
  

{ "type": "Feature", "geometry": {"type": "Point", "coordinates": [20.30133,63.84603]},
"properties": {
		"name": "Umeå/Mariedal",
        "alias": "mariedal",
		"id": "493",
		"color": "#c1d1d8",
		"temperature":"-5"

 }},
  

{ "type": "Feature", "geometry": {"type": "Point", "coordinates": [20.3188632,63.8461514]},
"properties": {
		"name": "Umeå/Marieberg",
        "alias": "marieberg",
		"id": "494",
		"color": "#c1d1d8",
		"temperature":"-5"

 }},
  

{ "type": "Feature", "geometry": {"type": "Point", "coordinates": [17.799444,63.014444]},
"properties": {
		"name": "Sandslån",
        "alias": "sandslan",
		"id": "310",
		"color": "#c1d1d8",
		"temperature":"-5"

 }},
  

{ "type": "Feature", "geometry": {"type": "Point", "coordinates": [18.425519,63.428913]},
"properties": {
		"name": "Örnsköldsvik/Gottne",
        "alias": "gottne",
		"id": "440",
		"color": "#c6d5db",
		"temperature":"-4"

 }},
  

{ "type": "Feature", "geometry": {"type": "Point", "coordinates": [14.235449,60.510118]},
"properties": {
		"name": "Vansbro",
        "alias": "vansbro",
		"id": "215",
		"color": "#c6d5db",
		"temperature":"-4"

 }},
  

{ "type": "Feature", "geometry": {"type": "Point", "coordinates": [14.844083,63.3171]},
"properties": {
		"name": "Lit",
        "alias": "lit",
		"id": "182",
		"color": "#c6d5db",
		"temperature":"-4"

 }},
  

{ "type": "Feature", "geometry": {"type": "Point", "coordinates": [16.637800000000,61.710000000000]},
"properties": {
		"name": "Delsbo",
        "alias": "delsbo",
		"id": "78",
		"color": "#c6d5db",
		"temperature":"-4"

 }},
  

{ "type": "Feature", "geometry": {"type": "Point", "coordinates": [17.9589,62.6372]},
"properties": {
		"name": "Härnösand/Brännan",
        "alias": "brannan",
		"id": "358",
		"color": "#c6d5db",
		"temperature":"-4"

 }},
  

{ "type": "Feature", "geometry": {"type": "Point", "coordinates": [17.0444,62.3495]},
"properties": {
		"name": "Matfors",
        "alias": "matfors",
		"id": "484",
		"color": "#c6d5db",
		"temperature":"-4"

 }},
  

{ "type": "Feature", "geometry": {"type": "Point", "coordinates": [15.1624526,60.5327755]},
"properties": {
		"name": "Arvslindan",
        "alias": "arvslindan",
		"id": "541",
		"color": "#c6d5db",
		"temperature":"-4"

 }},
  

{ "type": "Feature", "geometry": {"type": "Point", "coordinates": [13.35988334,60.93565972]},
"properties": {
		"name": "Lima Kyrkby",
        "alias": "lima",
		"id": "549",
		"color": "#c6d5db",
		"temperature":"-4"

 }},
  

{ "type": "Feature", "geometry": {"type": "Point", "coordinates": [17.277879,62.376037]},
"properties": {
		"name": "Sundsvall/Sidsjön",
        "alias": "sidsjon",
		"id": "559",
		"color": "#c6d5db",
		"temperature":"-4"

 }},
  

{ "type": "Feature", "geometry": {"type": "Point", "coordinates": [15.655850,60.592388]},
"properties": {
		"name": "Falun/Östra Främby",
        "alias": "ostra_framby",
		"id": "554",
		"color": "#c6d5db",
		"temperature":"-4"

 }},
  

{ "type": "Feature", "geometry": {"type": "Point", "coordinates": [14.4693,63.4251]},
"properties": {
		"name": "Krokom/Näversjön",
        "alias": "naversjon",
		"id": "566",
		"color": "#c6d5db",
		"temperature":"-4"

 }},
  

{ "type": "Feature", "geometry": {"type": "Point", "coordinates": [18.53048,63.52158]},
"properties": {
		"name": "Örnsköldsvik/Torsbacken",
        "alias": "torsbacken",
		"id": "552",
		"color": "#c6d5db",
		"temperature":"-4"

 }},
  

{ "type": "Feature", "geometry": {"type": "Point", "coordinates": [15.425796,62.759461]},
"properties": {
		"name": "Bräcke",
        "alias": "bracke",
		"id": "410",
		"color": "#c6d5db",
		"temperature":"-4"

 }},
  

{ "type": "Feature", "geometry": {"type": "Point", "coordinates": [14.365475,62.032513]},
"properties": {
		"name": "Sveg",
        "alias": "sveg",
		"id": "36",
		"color": "#c6d5db",
		"temperature":"-4"

 }},
  

{ "type": "Feature", "geometry": {"type": "Point", "coordinates": [17.284204,62.393514]},
"properties": {
		"name": "Sundsvall/Centrum",
        "alias": "sundsvall",
		"id": "12",
		"color": "#c6d5db",
		"temperature":"-4"

 }},
  

{ "type": "Feature", "geometry": {"type": "Point", "coordinates": [17.39614444,62.51047222]},
"properties": {
		"name": "Timrå",
        "alias": "timra",
		"id": "112",
		"color": "#c6d5db",
		"temperature":"-4"

 }},
  

{ "type": "Feature", "geometry": {"type": "Point", "coordinates": [16.080078,60.442668]},
"properties": {
		"name": "Långshyttan/Långsbyn",
        "alias": "langsbyn",
		"id": "428",
		"color": "#c6d5db",
		"temperature":"-4"

 }},
  

{ "type": "Feature", "geometry": {"type": "Point", "coordinates": [15.38730,60.46678]},
"properties": {
		"name": "Borlänge/Västanäng",
        "alias": "vastanang",
		"id": "511",
		"color": "#c6d5db",
		"temperature":"-4"

 }},
  

{ "type": "Feature", "geometry": {"type": "Point", "coordinates": [14.543991,61.006852]},
"properties": {
		"name": "Mora",
        "alias": "mora",
		"id": "22",
		"color": "#c6d5db",
		"temperature":"-4"

 }},
  

{ "type": "Feature", "geometry": {"type": "Point", "coordinates": [15.7605372,60.5964861]},
"properties": {
		"name": "Falun/Hosjö",
        "alias": "hosjo",
		"id": "475",
		"color": "#cbd9de",
		"temperature":"-3"

 }},
  

{ "type": "Feature", "geometry": {"type": "Point", "coordinates": [14.5234,63.5187]},
"properties": {
		"name": "Lundsjön",
        "alias": "lundsjon",
		"id": "280",
		"color": "#cbd9de",
		"temperature":"-3"

 }},
  

{ "type": "Feature", "geometry": {"type": "Point", "coordinates": [21.974167,68.050278]},
"properties": {
		"name": "Lannavaara",
        "alias": "lannavaara",
		"id": "111",
		"color": "#cbd9de",
		"temperature":"-3"

 }},
  

{ "type": "Feature", "geometry": {"type": "Point", "coordinates": [14.402626210572,62.405433756151]},
"properties": {
		"name": "Nederhögen",
        "alias": "nederhogen",
		"id": "238",
		"color": "#cbd9de",
		"temperature":"-3"

 }},
  

{ "type": "Feature", "geometry": {"type": "Point", "coordinates": [15.0483,59.8664]},
"properties": {
		"name": "Bångbro",
        "alias": "bangbro",
		"id": "247",
		"color": "#cbd9de",
		"temperature":"-3"

 }},
  

{ "type": "Feature", "geometry": {"type": "Point", "coordinates": [17.3929,62.2982]},
"properties": {
		"name": "Sundsvall/Kvissleby",
        "alias": "kvissleby",
		"id": "269",
		"color": "#cbd9de",
		"temperature":"-3"

 }},
  

{ "type": "Feature", "geometry": {"type": "Point", "coordinates": [16.2867,60.5457]},
"properties": {
		"name": "Hofors",
        "alias": "hofors",
		"id": "307",
		"color": "#cbd9de",
		"temperature":"-3"

 }},
  

{ "type": "Feature", "geometry": {"type": "Point", "coordinates": [16.6930,61.1062]},
"properties": {
		"name": "Holmsveden",
        "alias": "holmsveden",
		"id": "315",
		"color": "#cbd9de",
		"temperature":"-3"

 }},
  

{ "type": "Feature", "geometry": {"type": "Point", "coordinates": [18.769602,63.271372]},
"properties": {
		"name": "Örnsköldsvik/Järved",
        "alias": "jarved",
		"id": "184",
		"color": "#cbd9de",
		"temperature":"-3"

 }},
  

{ "type": "Feature", "geometry": {"type": "Point", "coordinates": [15.2950,60.7104]},
"properties": {
		"name": "Sågmyra",
        "alias": "sagmyra",
		"id": "344",
		"color": "#cbd9de",
		"temperature":"-3"

 }},
  

{ "type": "Feature", "geometry": {"type": "Point", "coordinates": [15.1803,60.1357]},
"properties": {
		"name": "Ludvika",
        "alias": "ludvika",
		"id": "375",
		"color": "#cbd9de",
		"temperature":"-3"

 }},
  

{ "type": "Feature", "geometry": {"type": "Point", "coordinates": [12.7334003,62.6918983]},
"properties": {
		"name": "Mittådalsvallen",
        "alias": "mittadalsvallen",
		"id": "365",
		"color": "#cbd9de",
		"temperature":"-3"

 }},
  

{ "type": "Feature", "geometry": {"type": "Point", "coordinates": [15.1930,60.1219]},
"properties": {
		"name": "Ludvika/Jägarnäs",
        "alias": "jagarnas",
		"id": "376",
		"color": "#cbd9de",
		"temperature":"-3"

 }},
  

{ "type": "Feature", "geometry": {"type": "Point", "coordinates": [17.3926,62.5344]},
"properties": {
		"name": "Timrå/Bergeforsen",
        "alias": "bergeforsen",
		"id": "395",
		"color": "#cbd9de",
		"temperature":"-3"

 }},
  

{ "type": "Feature", "geometry": {"type": "Point", "coordinates": [17.2427,62.0729]},
"properties": {
		"name": "Gnarp",
        "alias": "gnarp",
		"id": "526",
		"color": "#cbd9de",
		"temperature":"-3"

 }},
  

{ "type": "Feature", "geometry": {"type": "Point", "coordinates": [18.55939,63.29136]},
"properties": {
		"name": "Överhörnäs",
        "alias": "overhornas",
		"id": "548",
		"color": "#cbd9de",
		"temperature":"-3"

 }},
  

{ "type": "Feature", "geometry": {"type": "Point", "coordinates": [18.6891,63.2752]},
"properties": {
		"name": "Örnsköldsvik/Hörnett",
        "alias": "hornett",
		"id": "569",
		"color": "#cbd9de",
		"temperature":"-3"

 }},
  

{ "type": "Feature", "geometry": {"type": "Point", "coordinates": [14.4572,63.3275]},
"properties": {
		"name": "Krokom",
        "alias": "krokom",
		"id": "561",
		"color": "#cbd9de",
		"temperature":"-3"

 }},
  

{ "type": "Feature", "geometry": {"type": "Point", "coordinates": [17.1225,61.296111]},
"properties": {
		"name": "Söderhamn",
        "alias": "soderhamn",
		"id": "153",
		"color": "#cbd9de",
		"temperature":"-3"

 }},
  

{ "type": "Feature", "geometry": {"type": "Point", "coordinates": [18.785849,63.312218]},
"properties": {
		"name": "Örnsköldsvik/Arnäsvall",
        "alias": "arnasvall",
		"id": "421",
		"color": "#cbd9de",
		"temperature":"-3"

 }},
  

{ "type": "Feature", "geometry": {"type": "Point", "coordinates": [15.3835,60.1497]},
"properties": {
		"name": "Smedjebacken/Morgårdshammar",
        "alias": "morgardshammar",
		"id": "602",
		"color": "#cbd9de",
		"temperature":"-3"

 }},
  

{ "type": "Feature", "geometry": {"type": "Point", "coordinates": [15.420314475677,60.495528672421]},
"properties": {
		"name": "Borlänge",
        "alias": "borlange",
		"id": "13",
		"color": "#d1dde0",
		"temperature":"-2"

 }},
  

{ "type": "Feature", "geometry": {"type": "Point", "coordinates": [17.386813,61.984872]},
"properties": {
		"name": "Hårte",
        "alias": "harte",
		"id": "115",
		"color": "#d1dde0",
		"temperature":"-2"

 }},
  

{ "type": "Feature", "geometry": {"type": "Point", "coordinates": [15.5055,61.3072]},
"properties": {
		"name": "Finnshögst",
        "alias": "finnshogst",
		"id": "277",
		"color": "#d1dde0",
		"temperature":"-2"

 }},
  

{ "type": "Feature", "geometry": {"type": "Point", "coordinates": [16.043436581221,61.393466765527]},
"properties": {
		"name": "Långhed",
        "alias": "langhed",
		"id": "94",
		"color": "#d1dde0",
		"temperature":"-2"

 }},
  

{ "type": "Feature", "geometry": {"type": "Point", "coordinates": [14.720568,60.043517]},
"properties": {
		"name": "Nittkvarn",
        "alias": "nittkvarn",
		"id": "297",
		"color": "#d1dde0",
		"temperature":"-2"

 }},
  

{ "type": "Feature", "geometry": {"type": "Point", "coordinates": [16.389117,61.362415]},
"properties": {
		"name": "Bollnäs",
        "alias": "bollnas",
		"id": "7",
		"color": "#d1dde0",
		"temperature":"-2"

 }},
  

{ "type": "Feature", "geometry": {"type": "Point", "coordinates": [15.4246,60.4942]},
"properties": {
		"name": "Borlänge/Forssa 2",
        "alias": "forssa2",
		"id": "518",
		"color": "#d1dde0",
		"temperature":"-2"

 }},
  

{ "type": "Feature", "geometry": {"type": "Point", "coordinates": [16.301633,60.202183]},
"properties": {
		"name": "Avesta/Fors",
        "alias": "fors",
		"id": "101",
		"color": "#d1dde0",
		"temperature":"-2"

 }},
  

{ "type": "Feature", "geometry": {"type": "Point", "coordinates": [17.103722,61.730192]},
"properties": {
		"name": "Hudiksvall",
        "alias": "hudiksvall",
		"id": "488",
		"color": "#d1dde0",
		"temperature":"-2"

 }},
  

{ "type": "Feature", "geometry": {"type": "Point", "coordinates": [12.543754,62.541485]},
"properties": {
		"name": "Funäsdalen",
        "alias": "funasdalen",
		"id": "53",
		"color": "#d1dde0",
		"temperature":"-2"

 }},
  

{ "type": "Feature", "geometry": {"type": "Point", "coordinates": [12.3042,62.0705]},
"properties": {
		"name": "Storsätern",
        "alias": "storsatern",
		"id": "157",
		"color": "#d1dde0",
		"temperature":"-2"

 }},
  

{ "type": "Feature", "geometry": {"type": "Point", "coordinates": [15.800159,60.002041]},
"properties": {
		"name": "Fagersta",
        "alias": "fagersta",
		"id": "5",
		"color": "#d1dde0",
		"temperature":"-2"

 }},
  

{ "type": "Feature", "geometry": {"type": "Point", "coordinates": [14.63059,60.02358]},
"properties": {
		"name": "Strömsdal",
        "alias": "stromsdal",
		"id": "368",
		"color": "#d1dde0",
		"temperature":"-2"

 }},
  

{ "type": "Feature", "geometry": {"type": "Point", "coordinates": [16.3384,59.4506]},
"properties": {
		"name": "Kvicksund",
        "alias": "kvicksund",
		"id": "360",
		"color": "#d1dde0",
		"temperature":"-2"

 }},
  

{ "type": "Feature", "geometry": {"type": "Point", "coordinates": [14.80252,63.127385]},
"properties": {
		"name": "Östersund/Optand",
        "alias": "optand",
		"id": "379",
		"color": "#d1dde0",
		"temperature":"-2"

 }},
  

{ "type": "Feature", "geometry": {"type": "Point", "coordinates": [15.83582,59.485963]},
"properties": {
		"name": "Köping/Himmeta",
        "alias": "himmeta",
		"id": "381",
		"color": "#d1dde0",
		"temperature":"-2"

 }},
  

{ "type": "Feature", "geometry": {"type": "Point", "coordinates": [15.9827,60.2871]},
"properties": {
		"name": "Hedemora",
        "alias": "hedemora",
		"id": "535",
		"color": "#d1dde0",
		"temperature":"-2"

 }},
  

{ "type": "Feature", "geometry": {"type": "Point", "coordinates": [17.68915,62.64396]},
"properties": {
		"name": "Härnösand/Skjollsta",
        "alias": "skjollsta",
		"id": "593",
		"color": "#d1dde0",
		"temperature":"-2"

 }},
  

{ "type": "Feature", "geometry": {"type": "Point", "coordinates": [15.443,60.423]},
"properties": {
		"name": "Borlänge/Strandbro",
        "alias": "strandbro",
		"id": "454",
		"color": "#d1dde0",
		"temperature":"-2"

 }},
  

{ "type": "Feature", "geometry": {"type": "Point", "coordinates": [17.4314,62.4257]},
"properties": {
		"name": "Sundsvall/Alnö",
        "alias": "alno",
		"id": "524",
		"color": "#d1dde0",
		"temperature":"-2"

 }},
  

{ "type": "Feature", "geometry": {"type": "Point", "coordinates": [16.508333,59.624444]},
"properties": {
		"name": "Västerås",
        "alias": "vasteras",
		"id": "15",
		"color": "#d1dde0",
		"temperature":"-2"

 }},
  

{ "type": "Feature", "geometry": {"type": "Point", "coordinates": [14.654268,63.185764]},
"properties": {
		"name": "Östersund/Karlslund",
        "alias": "ostersund",
		"id": "33",
		"color": "#d1dde0",
		"temperature":"-2"

 }},
  

{ "type": "Feature", "geometry": {"type": "Point", "coordinates": [15.9031,59.3200]},
"properties": {
		"name": "Arboga/Tyringe",
        "alias": "tyringe",
		"id": "417",
		"color": "#d1dde0",
		"temperature":"-2"

 }},
  

{ "type": "Feature", "geometry": {"type": "Point", "coordinates": [16.085333379017,59.417854321639]},
"properties": {
		"name": "Kungsör västra",
        "alias": "kungsor_vastra",
		"id": "222",
		"color": "#d1dde0",
		"temperature":"-2"

 }},
  

{ "type": "Feature", "geometry": {"type": "Point", "coordinates": [14.5689,63.2447]},
"properties": {
		"name": "Ås",
        "alias": "As",
		"id": "480",
		"color": "#d1dde0",
		"temperature":"-2"

 }},
  

{ "type": "Feature", "geometry": {"type": "Point", "coordinates": [18.35650,63.23968]},
"properties": {
		"name": "Bjästa/Sunnansjö",
        "alias": "sunnansjo",
		"id": "485",
		"color": "#d1dde0",
		"temperature":"-2"

 }},
  

{ "type": "Feature", "geometry": {"type": "Point", "coordinates": [15.61944,60.61081]},
"properties": {
		"name": "Falun/Centrum",
        "alias": "falun",
		"id": "486",
		"color": "#d1dde0",
		"temperature":"-2"

 }},
  

{ "type": "Feature", "geometry": {"type": "Point", "coordinates": [14.6727,63.1755]},
"properties": {
		"name": "Östersund/Körfältet",
        "alias": "korfaltet",
		"id": "330",
		"color": "#d1dde0",
		"temperature":"-2"

 }},
  

{ "type": "Feature", "geometry": {"type": "Point", "coordinates": [13.8613,63.3910]},
"properties": {
		"name": "Slåtte",
        "alias": "slatte",
		"id": "331",
		"color": "#d1dde0",
		"temperature":"-2"

 }},
  

{ "type": "Feature", "geometry": {"type": "Point", "coordinates": [17.32994,60.65171]},
"properties": {
		"name": "Furuvik",
        "alias": "furuvik",
		"id": "516",
		"color": "#d1dde0",
		"temperature":"-2"

 }},
  

{ "type": "Feature", "geometry": {"type": "Point", "coordinates": [17.72803,60.02545]},
"properties": {
		"name": "Vattholma",
        "alias": "vattholma",
		"id": "140",
		"color": "#d6e1e3",
		"temperature":"-1"

 }},
  

{ "type": "Feature", "geometry": {"type": "Point", "coordinates": [17.116,59.284538]},
"properties": {
		"name": "Åkers Styckebruk",
        "alias": "sibirien",
		"id": "185",
		"color": "#d6e1e3",
		"temperature":"-1"

 }},
  

{ "type": "Feature", "geometry": {"type": "Point", "coordinates": [14.9405,59.3406]},
"properties": {
		"name": "Ånnaboda",
        "alias": "annaboda",
		"id": "239",
		"color": "#d6e1e3",
		"temperature":"-1"

 }},
  

{ "type": "Feature", "geometry": {"type": "Point", "coordinates": [16.402161191665,59.923362268324]},
"properties": {
		"name": "Salbohed",
        "alias": "salbohed",
		"id": "312",
		"color": "#d6e1e3",
		"temperature":"-1"

 }},
  

{ "type": "Feature", "geometry": {"type": "Point", "coordinates": [15.3826,60.4978]},
"properties": {
		"name": "Borlänge/Övretjärna",
        "alias": "ovretjarna",
		"id": "568",
		"color": "#d6e1e3",
		"temperature":"-1"

 }},
  

{ "type": "Feature", "geometry": {"type": "Point", "coordinates": [16.6171,59.9501]},
"properties": {
		"name": "Sala",
        "alias": "sala",
		"id": "144",
		"color": "#d6e1e3",
		"temperature":"-1"

 }},
  

{ "type": "Feature", "geometry": {"type": "Point", "coordinates": [14.60090,63.17371]},
"properties": {
		"name": "Östersund/Frösödal",
        "alias": "frosodal",
		"id": "351",
		"color": "#d6e1e3",
		"temperature":"-1"

 }},
  

{ "type": "Feature", "geometry": {"type": "Point", "coordinates": [15.102778,59.706667]},
"properties": {
		"name": "Guldsmedshyttan",
        "alias": "guldsmedshyttan",
		"id": "391",
		"color": "#d6e1e3",
		"temperature":"-1"

 }},
  

{ "type": "Feature", "geometry": {"type": "Point", "coordinates": [17.0797,60.6754]},
"properties": {
		"name": "Gävle/Hagaström",
        "alias": "gavle",
		"id": "483",
		"color": "#d6e1e3",
		"temperature":"-1"

 }},
  

{ "type": "Feature", "geometry": {"type": "Point", "coordinates": [16.5434,61.2538]},
"properties": {
		"name": "Kilafors",
        "alias": "kilafors",
		"id": "534",
		"color": "#d6e1e3",
		"temperature":"-1"

 }},
  

{ "type": "Feature", "geometry": {"type": "Point", "coordinates": [16.40875,59.61653]},
"properties": {
		"name": "Västerås/Vångsta",
        "alias": "vangsta",
		"id": "545",
		"color": "#d6e1e3",
		"temperature":"-1"

 }},
  

{ "type": "Feature", "geometry": {"type": "Point", "coordinates": [14.86808,62.46336]},
"properties": {
		"name": "Överturingen/Grubban",
        "alias": "overturingen-grubban",
		"id": "580",
		"color": "#d6e1e3",
		"temperature":"-1"

 }},
  

{ "type": "Feature", "geometry": {"type": "Point", "coordinates": [16.584270,60.723063]},
"properties": {
		"name": "Järbo",
        "alias": "jarbo",
		"id": "396",
		"color": "#d6e1e3",
		"temperature":"-1"

 }},
  

{ "type": "Feature", "geometry": {"type": "Point", "coordinates": [15.2985,59.5272]},
"properties": {
		"name": "Vedevåg",
        "alias": "vedevag",
		"id": "585",
		"color": "#d6e1e3",
		"temperature":"-1"

 }},
  

{ "type": "Feature", "geometry": {"type": "Point", "coordinates": [16.5238,59.5708]},
"properties": {
		"name": "Västerås/Ekbacken",
        "alias": "ekbacken",
		"id": "597",
		"color": "#d6e1e3",
		"temperature":"-1"

 }},
  

{ "type": "Feature", "geometry": {"type": "Point", "coordinates": [13.9272,56.8358]},
"properties": {
		"name": "Ljungby",
        "alias": "ljungby",
		"id": "295",
		"color": "#d6e1e3",
		"temperature":"-1"

 }},
  

{ "type": "Feature", "geometry": {"type": "Point", "coordinates": [14.1692,62.6536]},
"properties": {
		"name": "Åsarna/Skålan",
        "alias": "asarna",
		"id": "173",
		"color": "#d6e1e3",
		"temperature":"-1"

 }},
  

{ "type": "Feature", "geometry": {"type": "Point", "coordinates": [15.54608,60.52053]},
"properties": {
		"name": "Lilla Ornäs",
        "alias": "lillaornas",
		"id": "9",
		"color": "#d6e1e3",
		"temperature":"-1"

 }},
  

{ "type": "Feature", "geometry": {"type": "Point", "coordinates": [16.23492,59.62922]},
"properties": {
		"name": "Hallstahammar",
        "alias": "hallstahammar",
		"id": "510",
		"color": "#d6e1e3",
		"temperature":"-1"

 }},
  

{ "type": "Feature", "geometry": {"type": "Point", "coordinates": [15.4246,60.4942]},
"properties": {
		"name": "Borlänge/Forssa",
        "alias": "forssa",
		"id": "517",
		"color": "#d6e1e3",
		"temperature":"-1"

 }},
  

{ "type": "Feature", "geometry": {"type": "Point", "coordinates": [15.042,59.516]},
"properties": {
		"name": "Nora",
        "alias": "nora",
		"id": "100",
		"color": "#d6e1e3",
		"temperature":"-1"

 }},
  

{ "type": "Feature", "geometry": {"type": "Point", "coordinates": [18.289037,57.531614]},
"properties": {
		"name": "Visby",
        "alias": "visby",
		"id": "23",
		"color": "#e6dce1",
		"temperature":"0"

 }},
  

{ "type": "Feature", "geometry": {"type": "Point", "coordinates": [15.142908,59.131241]},
"properties": {
		"name": "Kumla",
        "alias": "kumla",
		"id": "95",
		"color": "#e6dce1",
		"temperature":"0"

 }},
  

{ "type": "Feature", "geometry": {"type": "Point", "coordinates": [13.276,58.408]},
"properties": {
		"name": "Hasslösa",
        "alias": "hasslosa",
		"id": "199",
		"color": "#e6dce1",
		"temperature":"0"

 }},
  

{ "type": "Feature", "geometry": {"type": "Point", "coordinates": [13.798333,55.428833]},
"properties": {
		"name": "Ystad",
        "alias": "ystad",
		"id": "38",
		"color": "#e6dce1",
		"temperature":"0"

 }},
  

{ "type": "Feature", "geometry": {"type": "Point", "coordinates": [14.301613,55.936094]},
"properties": {
		"name": "Åhus",
        "alias": "ahus",
		"id": "202",
		"color": "#e6dce1",
		"temperature":"0"

 }},
  

{ "type": "Feature", "geometry": {"type": "Point", "coordinates": [15.199389511168,59.256802933607]},
"properties": {
		"name": "Örebro/Ladugårdsängen",
        "alias": "ladugardsangen",
		"id": "217",
		"color": "#e6dce1",
		"temperature":"0"

 }},
  

{ "type": "Feature", "geometry": {"type": "Point", "coordinates": [15.8426,60.6756]},
"properties": {
		"name": "Sundborn",
        "alias": "sundborn",
		"id": "278",
		"color": "#e6dce1",
		"temperature":"0"

 }},
  

{ "type": "Feature", "geometry": {"type": "Point", "coordinates": [12.0338,57.7906]},
"properties": {
		"name": "Göteborg/Angered",
        "alias": "angered",
		"id": "279",
		"color": "#e6dce1",
		"temperature":"0"

 }},
  

{ "type": "Feature", "geometry": {"type": "Point", "coordinates": [15.5407,58.3961]},
"properties": {
		"name": "Linköping/Jägarvallen",
        "alias": "jagarvallen",
		"id": "281",
		"color": "#e6dce1",
		"temperature":"0"

 }},
  

{ "type": "Feature", "geometry": {"type": "Point", "coordinates": [14.984694,56.798175]},
"properties": {
		"name": "Ingelstad",
        "alias": "ingelstad",
		"id": "207",
		"color": "#e6dce1",
		"temperature":"0"

 }},
  

{ "type": "Feature", "geometry": {"type": "Point", "coordinates": [17.767518,59.721764]},
"properties": {
		"name": "Knivsta",
        "alias": "knivsta",
		"id": "81",
		"color": "#e6dce1",
		"temperature":"0"

 }},
  

{ "type": "Feature", "geometry": {"type": "Point", "coordinates": [14.069519,56.189483]},
"properties": {
		"name": "Knislinge",
        "alias": "knislinge",
		"id": "125",
		"color": "#e6dce1",
		"temperature":"0"

 }},
  

{ "type": "Feature", "geometry": {"type": "Point", "coordinates": [14.70929,57.63732]},
"properties": {
		"name": "Nässjö/Handskeryd",
        "alias": "handskeryd",
		"id": "514",
		"color": "#e6dce1",
		"temperature":"0"

 }},
  

{ "type": "Feature", "geometry": {"type": "Point", "coordinates": [12.285059,57.777535]},
"properties": {
		"name": "Lerum",
        "alias": "lerum",
		"id": "59",
		"color": "#e6dce1",
		"temperature":"0"

 }},
  

{ "type": "Feature", "geometry": {"type": "Point", "coordinates": [15.498696997523,58.420580289905]},
"properties": {
		"name": "Linköping/Malmslätt",
        "alias": "malmslatt",
		"id": "131",
		"color": "#e6dce1",
		"temperature":"0"

 }},
  

{ "type": "Feature", "geometry": {"type": "Point", "coordinates": [16.6373,59.8107]},
"properties": {
		"name": "Ransta",
        "alias": "ransta",
		"id": "251",
		"color": "#e6dce1",
		"temperature":"0"

 }},
  

{ "type": "Feature", "geometry": {"type": "Point", "coordinates": [14.5134,57.0034]},
"properties": {
		"name": "Moheda",
        "alias": "moheda",
		"id": "287",
		"color": "#e6dce1",
		"temperature":"0"

 }},
  

{ "type": "Feature", "geometry": {"type": "Point", "coordinates": [15.376396,59.465838]},
"properties": {
		"name": "Frövi",
        "alias": "frovi",
		"id": "252",
		"color": "#e6dce1",
		"temperature":"0"

 }},
  

{ "type": "Feature", "geometry": {"type": "Point", "coordinates": [13.10421,55.54516]},
"properties": {
		"name": "Malmö/Oxie Kyrkby",
        "alias": "oxiekyrkby",
		"id": "560",
		"color": "#e6dce1",
		"temperature":"0"

 }},
  

{ "type": "Feature", "geometry": {"type": "Point", "coordinates": [14.10994,55.43914]},
"properties": {
		"name": "Löderup",
        "alias": "loderup",
		"id": "302",
		"color": "#e6dce1",
		"temperature":"0"

 }},
  

{ "type": "Feature", "geometry": {"type": "Point", "coordinates": [16.502666,57.027040]},
"properties": {
		"name": "Mönsterås",
        "alias": "monsteras",
		"id": "166",
		"color": "#e6dce1",
		"temperature":"0"

 }},
  

{ "type": "Feature", "geometry": {"type": "Point", "coordinates": [18.0335,59.3956]},
"properties": {
		"name": "Sthlm/Danderyd",
        "alias": "danderyd",
		"id": "256",
		"color": "#e6dce1",
		"temperature":"0"

 }},
  

{ "type": "Feature", "geometry": {"type": "Point", "coordinates": [15.0526,57.0592]},
"properties": {
		"name": "Braås",
        "alias": "braas",
		"id": "254",
		"color": "#e6dce1",
		"temperature":"0"

 }},
  

{ "type": "Feature", "geometry": {"type": "Point", "coordinates": [13.10017,55.96131]},
"properties": {
		"name": "Axelvold",
        "alias": "axelvold",
		"id": "259",
		"color": "#e6dce1",
		"temperature":"0"

 }},
  

{ "type": "Feature", "geometry": {"type": "Point", "coordinates": [12.2825,57.8255]},
"properties": {
		"name": "Gråbo",
        "alias": "grabo",
		"id": "255",
		"color": "#e6dce1",
		"temperature":"0"

 }},
  

{ "type": "Feature", "geometry": {"type": "Point", "coordinates": [12.959253787994,55.772970477678]},
"properties": {
		"name": "Barsebäck",
        "alias": "barseback",
		"id": "268",
		"color": "#e6dce1",
		"temperature":"0"

 }},
  

{ "type": "Feature", "geometry": {"type": "Point", "coordinates": [13.4182,55.3585]},
"properties": {
		"name": "Beddingestrand",
        "alias": "beddingestrand",
		"id": "270",
		"color": "#e6dce1",
		"temperature":"0"

 }},
  

{ "type": "Feature", "geometry": {"type": "Point", "coordinates": [15.060133257360,58.536217348249]},
"properties": {
		"name": "Motala2",
        "alias": "motala2",
		"id": "305",
		"color": "#e6dce1",
		"temperature":"0"

 }},
  

{ "type": "Feature", "geometry": {"type": "Point", "coordinates": [12.7181,59.0307]},
"properties": {
		"name": "Åmål",
        "alias": "amal",
		"id": "265",
		"color": "#e6dce1",
		"temperature":"0"

 }},
  

{ "type": "Feature", "geometry": {"type": "Point", "coordinates": [12.988019537875,56.800894625629]},
"properties": {
		"name": "Oskarström",
        "alias": "oskarstrom",
		"id": "308",
		"color": "#e6dce1",
		"temperature":"0"

 }},
  

{ "type": "Feature", "geometry": {"type": "Point", "coordinates": [12.224157,59.038452]},
"properties": {
		"name": "Bengtsfors",
        "alias": "bengtsfors",
		"id": "205",
		"color": "#e6dce1",
		"temperature":"0"

 }},
  

{ "type": "Feature", "geometry": {"type": "Point", "coordinates": [18.9389992,59.6385002]},
"properties": {
		"name": "Blidö",
        "alias": "blido",
		"id": "192",
		"color": "#e6dce1",
		"temperature":"0"

 }},
  

{ "type": "Feature", "geometry": {"type": "Point", "coordinates": [15.270440,58.512229]},
"properties": {
		"name": "Borensberg/Korskrog",
        "alias": "korskrog",
		"id": "206",
		"color": "#e6dce1",
		"temperature":"0"

 }},
  

{ "type": "Feature", "geometry": {"type": "Point", "coordinates": [14.798738784909,56.883961659555]},
"properties": {
		"name": "Växjö/Centrum",
        "alias": "vaxjo",
		"id": "237",
		"color": "#e6dce1",
		"temperature":"0"

 }},
  

{ "type": "Feature", "geometry": {"type": "Point", "coordinates": [17.597,59.847]},
"properties": {
		"name": "Uppsala/Flogsta",
        "alias": "flogsta",
		"id": "313",
		"color": "#e6dce1",
		"temperature":"0"

 }},
  

{ "type": "Feature", "geometry": {"type": "Point", "coordinates": [13.294833,55.827988]},
"properties": {
		"name": "Eslöv",
        "alias": "eslov",
		"id": "136",
		"color": "#e6dce1",
		"temperature":"0"

 }},
  

{ "type": "Feature", "geometry": {"type": "Point", "coordinates": [16.779183,58.805111]},
"properties": {
		"name": "Nyköping/stigtomta",
        "alias": "stigtomta",
		"id": "489",
		"color": "#e6dce1",
		"temperature":"0"

 }},
  

{ "type": "Feature", "geometry": {"type": "Point", "coordinates": [13.544167,58.18]},
"properties": {
		"name": "Falköping",
        "alias": "falkoping",
		"id": "141",
		"color": "#e6dce1",
		"temperature":"0"

 }},
  

{ "type": "Feature", "geometry": {"type": "Point", "coordinates": [13.008787883362,55.754397341189]},
"properties": {
		"name": "Löddeköpinge",
        "alias": "loddekopinge",
		"id": "232",
		"color": "#e6dce1",
		"temperature":"0"

 }},
  

{ "type": "Feature", "geometry": {"type": "Point", "coordinates": [13.003557,55.496231]},
"properties": {
		"name": "Vellinge/Hököpinge",
        "alias": "hokopinge",
		"id": "515",
		"color": "#e6dce1",
		"temperature":"0"

 }},
  

{ "type": "Feature", "geometry": {"type": "Point", "coordinates": [17.7936,59.4679]},
"properties": {
		"name": "Sthlm/Stäket",
        "alias": "staket",
		"id": "538",
		"color": "#e6dce1",
		"temperature":"0"

 }},
  

{ "type": "Feature", "geometry": {"type": "Point", "coordinates": [12.48531,57.69630]},
"properties": {
		"name": "Hindås",
        "alias": "hindas",
		"id": "224",
		"color": "#e6dce1",
		"temperature":"0"

 }},
  

{ "type": "Feature", "geometry": {"type": "Point", "coordinates": [16.460638624931,56.644584515597]},
"properties": {
		"name": "Öland/Färjestaden",
        "alias": "farjestaden",
		"id": "223",
		"color": "#e6dce1",
		"temperature":"0"

 }},
  

{ "type": "Feature", "geometry": {"type": "Point", "coordinates": [17.84597,59.63101]},
"properties": {
		"name": "Märsta",
        "alias": "marsta",
		"id": "219",
		"color": "#e6dce1",
		"temperature":"0"

 }},
  

{ "type": "Feature", "geometry": {"type": "Point", "coordinates": [11.921525103676,58.914636996794]},
"properties": {
		"name": "Ed",
        "alias": "ed",
		"id": "236",
		"color": "#e6dce1",
		"temperature":"0"

 }},
  

{ "type": "Feature", "geometry": {"type": "Point", "coordinates": [14.785214202987,57.164111895963]},
"properties": {
		"name": "Asa",
        "alias": "asa",
		"id": "235",
		"color": "#e6dce1",
		"temperature":"0"

 }},
  

{ "type": "Feature", "geometry": {"type": "Point", "coordinates": [15.799083,58.709955]},
"properties": {
		"name": "Finspång",
        "alias": "finspang",
		"id": "113",
		"color": "#e6dce1",
		"temperature":"0"

 }},
  

{ "type": "Feature", "geometry": {"type": "Point", "coordinates": [14.4756,59.3100]},
"properties": {
		"name": "Karlskoga/Fisksjön",
        "alias": "fisksjon",
		"id": "590",
		"color": "#e6dce1",
		"temperature":"0"

 }},
  

{ "type": "Feature", "geometry": {"type": "Point", "coordinates": [16.81452,58.62782]},
"properties": {
		"name": "Nyköping/Skeppsvik",
        "alias": "skeppsvik",
		"id": "604",
		"color": "#e6dce1",
		"temperature":"0"

 }},
  

{ "type": "Feature", "geometry": {"type": "Point", "coordinates": [13.111721779450,59.367889889406]},
"properties": {
		"name": "Grums",
        "alias": "grums",
		"id": "87",
		"color": "#e6dce1",
		"temperature":"0"

 }},
  

{ "type": "Feature", "geometry": {"type": "Point", "coordinates": [15.540867,59.139983]},
"properties": {
		"name": "Odensbacken",
        "alias": "odensbacken",
		"id": "213",
		"color": "#e6dce1",
		"temperature":"0"

 }},
  

{ "type": "Feature", "geometry": {"type": "Point", "coordinates": [18.696556,59.761764]},
"properties": {
		"name": "Norrtälje/Centrum",
        "alias": "norrtalje",
		"id": "39",
		"color": "#e6dce1",
		"temperature":"0"

 }},
  

{ "type": "Feature", "geometry": {"type": "Point", "coordinates": [18.08008,59.294297]},
"properties": {
		"name": "Sthlm/Globen",
        "alias": "globen",
		"id": "134",
		"color": "#e6dce1",
		"temperature":"0"

 }},
  

{ "type": "Feature", "geometry": {"type": "Point", "coordinates": [12.9306,56.4122]},
"properties": {
		"name": "Östra Karup",
        "alias": "ostra_karup",
		"id": "242",
		"color": "#e6dce1",
		"temperature":"0"

 }},
  

{ "type": "Feature", "geometry": {"type": "Point", "coordinates": [18.702148,59.311209]},
"properties": {
		"name": "Sthlm/Värmdö",
        "alias": "varmdo",
		"id": "61",
		"color": "#e6dce1",
		"temperature":"0"

 }},
  

{ "type": "Feature", "geometry": {"type": "Point", "coordinates": [17.81123,59.183841]},
"properties": {
		"name": "Sthlm/Tumba",
        "alias": "tumba",
		"id": "183",
		"color": "#e6dce1",
		"temperature":"0"

 }},
  

{ "type": "Feature", "geometry": {"type": "Point", "coordinates": [18.533922,59.250472]},
"properties": {
		"name": "Sthlm/Ingarö",
        "alias": "ingaro",
		"id": "188",
		"color": "#e6dce1",
		"temperature":"0"

 }},
  

{ "type": "Feature", "geometry": {"type": "Point", "coordinates": [17.960061,59.452675]},
"properties": {
		"name": "Sthlm/Sollentuna",
        "alias": "sollentuna",
		"id": "84",
		"color": "#e6dce1",
		"temperature":"0"

 }},
  

{ "type": "Feature", "geometry": {"type": "Point", "coordinates": [18.084369,59.54065]},
"properties": {
		"name": "Sthlm/Vallentuna",
        "alias": "vallentuna",
		"id": "209",
		"color": "#e6dce1",
		"temperature":"0"

 }},
  

{ "type": "Feature", "geometry": {"type": "Point", "coordinates": [16.53316,59.35358]},
"properties": {
		"name": "Eskilstuna",
        "alias": "eskilstuna",
		"id": "29",
		"color": "#e6dce1",
		"temperature":"0"

 }},
  

{ "type": "Feature", "geometry": {"type": "Point", "coordinates": [16.8376,59.6738]},
"properties": {
		"name": "Kärsta",
        "alias": "karsta",
		"id": "341",
		"color": "#e6dce1",
		"temperature":"0"

 }},
  

{ "type": "Feature", "geometry": {"type": "Point", "coordinates": [13.5325,57.9873]},
"properties": {
		"name": "Trädet",
        "alias": "tradet",
		"id": "458",
		"color": "#e6dce1",
		"temperature":"0"

 }},
  

{ "type": "Feature", "geometry": {"type": "Point", "coordinates": [16.11086,59.42069]},
"properties": {
		"name": "Kungsör östra",
        "alias": "kungsor_ostra",
		"id": "350",
		"color": "#e6dce1",
		"temperature":"0"

 }},
  

{ "type": "Feature", "geometry": {"type": "Point", "coordinates": [17.61087,59.80588]},
"properties": {
		"name": "Uppsala/Södra Gottsunda",
        "alias": "sodra_gottsunda",
		"id": "352",
		"color": "#e6dce1",
		"temperature":"0"

 }},
  

{ "type": "Feature", "geometry": {"type": "Point", "coordinates": [16.88899,59.66773]},
"properties": {
		"name": "Enköping/Bred Edsberga",
        "alias": "bred_edsberga",
		"id": "465",
		"color": "#e6dce1",
		"temperature":"0"

 }},
  

{ "type": "Feature", "geometry": {"type": "Point", "coordinates": [13.0630,57.1745]},
"properties": {
		"name": "Kalv",
        "alias": "kalv",
		"id": "373",
		"color": "#e6dce1",
		"temperature":"0"

 }},
  

{ "type": "Feature", "geometry": {"type": "Point", "coordinates": [17.8166,59.3982]},
"properties": {
		"name": "Sthlm/Hässelby",
        "alias": "hasselby",
		"id": "366",
		"color": "#e6dce1",
		"temperature":"0"

 }},
  

{ "type": "Feature", "geometry": {"type": "Point", "coordinates": [18.1095,59.3141]},
"properties": {
		"name": "Sthlm/Saltsjöqvarn",
        "alias": "saltsjoqvarn",
		"id": "364",
		"color": "#e6dce1",
		"temperature":"0"

 }},
  

{ "type": "Feature", "geometry": {"type": "Point", "coordinates": [12.90688,57.73075]},
"properties": {
		"name": "Borås/Hestra",
        "alias": "hestra",
		"id": "378",
		"color": "#e6dce1",
		"temperature":"0"

 }},
  

{ "type": "Feature", "geometry": {"type": "Point", "coordinates": [17.645293,59.891796]},
"properties": {
		"name": "Uppsala/GamlaUppsala",
        "alias": "gamlauppsala",
		"id": "389",
		"color": "#e6dce1",
		"temperature":"0"

 }},
  

{ "type": "Feature", "geometry": {"type": "Point", "coordinates": [13.20398,55.72646]},
"properties": {
		"name": "Lund/Norra_Fäladen",
        "alias": "norra_faladen",
		"id": "401",
		"color": "#e6dce1",
		"temperature":"0"

 }},
  

{ "type": "Feature", "geometry": {"type": "Point", "coordinates": [12.968043,57.784575]},
"properties": {
		"name": "Borås/Ramnavik",
        "alias": "ramnavik",
		"id": "392",
		"color": "#e6dce1",
		"temperature":"0"

 }},
  

{ "type": "Feature", "geometry": {"type": "Point", "coordinates": [12.970959,55.417646]},
"properties": {
		"name": "Höllviken2",
        "alias": "hollviken2",
		"id": "394",
		"color": "#e6dce1",
		"temperature":"0"

 }},
  

{ "type": "Feature", "geometry": {"type": "Point", "coordinates": [15.095325167740,58.816730722847]},
"properties": {
		"name": "Zinkgruvan",
        "alias": "zinkgruvan",
		"id": "218",
		"color": "#e6dce1",
		"temperature":"0"

 }},
  

{ "type": "Feature", "geometry": {"type": "Point", "coordinates": [16.0711,58.8688]},
"properties": {
		"name": "Bränntorp",
        "alias": "branntorp",
		"id": "478",
		"color": "#e6dce1",
		"temperature":"0"

 }},
  

{ "type": "Feature", "geometry": {"type": "Point", "coordinates": [17.834960,59.398267]},
"properties": {
		"name": "Sthlm/Järfälla",
        "alias": "jarfalla",
		"id": "592",
		"color": "#e6dce1",
		"temperature":"0"

 }},
  

{ "type": "Feature", "geometry": {"type": "Point", "coordinates": [13.08285,55.53299]},
"properties": {
		"name": "Malmö/Käglinge",
        "alias": "kaglinge",
		"id": "531",
		"color": "#e6dce1",
		"temperature":"0"

 }},
  

{ "type": "Feature", "geometry": {"type": "Point", "coordinates": [13.937176,56.325686]},
"properties": {
		"name": "Mannarp",
        "alias": "mannarp",
		"id": "529",
		"color": "#e6dce1",
		"temperature":"0"

 }},
  

{ "type": "Feature", "geometry": {"type": "Point", "coordinates": [12.98780,61.17779]},
"properties": {
		"name": "Tandådalen",
        "alias": "tandadalen",
		"id": "539",
		"color": "#e6dce1",
		"temperature":"0"

 }},
  

{ "type": "Feature", "geometry": {"type": "Point", "coordinates": [17.920372,59.527968]},
"properties": {
		"name": "Upplands Väsby",
        "alias": "upplandsvasby",
		"id": "532",
		"color": "#e6dce1",
		"temperature":"0"

 }},
  

{ "type": "Feature", "geometry": {"type": "Point", "coordinates": [17.529158592224,59.952324297123]},
"properties": {
		"name": "Bälinge",
        "alias": "balinge",
		"id": "519",
		"color": "#e6dce1",
		"temperature":"0"

 }},
  

{ "type": "Feature", "geometry": {"type": "Point", "coordinates": [18.18946,59.31099]},
"properties": {
		"name": "Sthlm/Skogalund",
        "alias": "skogalund",
		"id": "550",
		"color": "#e6dce1",
		"temperature":"0"

 }},
  

{ "type": "Feature", "geometry": {"type": "Point", "coordinates": [17.537202,59.875568]},
"properties": {
		"name": "Börje Åkerby",
        "alias": "borje_akerby",
		"id": "557",
		"color": "#e6dce1",
		"temperature":"0"

 }},
  

{ "type": "Feature", "geometry": {"type": "Point", "coordinates": [17.89292,58.99362]},
"properties": {
		"name": "Nynäshamn/Ösmo",
        "alias": "osmo",
		"id": "556",
		"color": "#e6dce1",
		"temperature":"0"

 }},
  

{ "type": "Feature", "geometry": {"type": "Point", "coordinates": [14.1335,58.7173]},
"properties": {
		"name": "Töreboda",
        "alias": "toreboda",
		"id": "558",
		"color": "#e6dce1",
		"temperature":"0"

 }},
  

{ "type": "Feature", "geometry": {"type": "Point", "coordinates": [18.003201,59.356712]},
"properties": {
		"name": "Sthlm/Solna",
        "alias": "solna",
		"id": "32",
		"color": "#e6dce1",
		"temperature":"0"

 }},
  

{ "type": "Feature", "geometry": {"type": "Point", "coordinates": [13.830638,58.393641]},
"properties": {
		"name": "Skövde/Centrum",
        "alias": "skovde",
		"id": "37",
		"color": "#e6dce1",
		"temperature":"0"

 }},
  

{ "type": "Feature", "geometry": {"type": "Point", "coordinates": [17.986037310808,59.280002896232]},
"properties": {
		"name": "Sthlm/Älvsjö",
        "alias": "alvsjo",
		"id": "311",
		"color": "#e6dce1",
		"temperature":"0"

 }},
  

{ "type": "Feature", "geometry": {"type": "Point", "coordinates": [15.0508,59.0035]},
"properties": {
		"name": "Åsbro",
        "alias": "asbro",
		"id": "298",
		"color": "#e6dce1",
		"temperature":"0"

 }},
  

{ "type": "Feature", "geometry": {"type": "Point", "coordinates": [14.297286,57.787081]},
"properties": {
		"name": "Huskvarna/Egna Hem",
        "alias": "egna_hem",
		"id": "563",
		"color": "#e6dce1",
		"temperature":"0"

 }},
  

{ "type": "Feature", "geometry": {"type": "Point", "coordinates": [15.9992,58.6621]},
"properties": {
		"name": "Norrköping/Svärtinge",
        "alias": "svartinge",
		"id": "586",
		"color": "#e6dce1",
		"temperature":"0"

 }},
  

{ "type": "Feature", "geometry": {"type": "Point", "coordinates": [12.86150,63.39747]},
"properties": {
		"name": "Duved",
        "alias": "duved",
		"id": "397",
		"color": "#e6dce1",
		"temperature":"0"

 }},
  

{ "type": "Feature", "geometry": {"type": "Point", "coordinates": [15.471662,56.192977]},
"properties": {
		"name": "Ronneby/Esketorp",
        "alias": "esketorp",
		"id": "571",
		"color": "#e6dce1",
		"temperature":"0"

 }},
  

{ "type": "Feature", "geometry": {"type": "Point", "coordinates": [18.0678,59.3252]},
"properties": {
		"name": "Sthlm/City",
        "alias": "stockholm",
		"id": "82",
		"color": "#e6dce1",
		"temperature":"0"

 }},
  

{ "type": "Feature", "geometry": {"type": "Point", "coordinates": [17.865777,59.049977]},
"properties": {
		"name": "Sorunda",
        "alias": "sorunda",
		"id": "159",
		"color": "#e6dce1",
		"temperature":"0"

 }},
  

{ "type": "Feature", "geometry": {"type": "Point", "coordinates": [15.83900,59.38231]},
"properties": {
		"name": "Arboga/Brattberget",
        "alias": "brattberget",
		"id": "567",
		"color": "#e6dce1",
		"temperature":"0"

 }},
  

{ "type": "Feature", "geometry": {"type": "Point", "coordinates": [16.157844,58.658503]},
"properties": {
		"name": "Norrköping/Jursla",
        "alias": "jursla",
		"id": "570",
		"color": "#e6dce1",
		"temperature":"0"

 }},
  

{ "type": "Feature", "geometry": {"type": "Point", "coordinates": [18.178056,59.256389]},
"properties": {
		"name": "Sthlm/Älta",
        "alias": "alta",
		"id": "574",
		"color": "#e6dce1",
		"temperature":"0"

 }},
  

{ "type": "Feature", "geometry": {"type": "Point", "coordinates": [12.744427,56.024516]},
"properties": {
		"name": "Helsingborg/Ramlösa",
        "alias": "ramlosa",
		"id": "193",
		"color": "#e6dce1",
		"temperature":"0"

 }},
  

{ "type": "Feature", "geometry": {"type": "Point", "coordinates": [18.0605,59.4356]},
"properties": {
		"name": "Sthlm/Roslags_Näsby",
        "alias": "roslags_nasby",
		"id": "406",
		"color": "#e6dce1",
		"temperature":"0"

 }},
  

{ "type": "Feature", "geometry": {"type": "Point", "coordinates": [18.18701,59.17092]},
"properties": {
		"name": "Sthlm/Haninge",
        "alias": "haninge",
		"id": "405",
		"color": "#e6dce1",
		"temperature":"0"

 }},
  

{ "type": "Feature", "geometry": {"type": "Point", "coordinates": [18.1974,59.2050]},
"properties": {
		"name": "Vendelsö_Gård",
        "alias": "vendelso_gard",
		"id": "575",
		"color": "#e6dce1",
		"temperature":"0"

 }},
  

{ "type": "Feature", "geometry": {"type": "Point", "coordinates": [12.8070,57.5541]},
"properties": {
		"name": "Fritsla",
        "alias": "fritsla",
		"id": "594",
		"color": "#e6dce1",
		"temperature":"0"

 }},
  

{ "type": "Feature", "geometry": {"type": "Point", "coordinates": [14.8837,59.1814]},
"properties": {
		"name": "Fjugesta",
        "alias": "fjugesta",
		"id": "589",
		"color": "#e6dce1",
		"temperature":"0"

 }},
  

{ "type": "Feature", "geometry": {"type": "Point", "coordinates": [13.000278,57.812911]},
"properties": {
		"name": "Borås/Fristad",
        "alias": "fristad",
		"id": "408",
		"color": "#e6dce1",
		"temperature":"0"

 }},
  

{ "type": "Feature", "geometry": {"type": "Point", "coordinates": [17.9662,59.2389]},
"properties": {
		"name": "Sthlm/Huddinge",
        "alias": "huddinge",
		"id": "26",
		"color": "#e6dce1",
		"temperature":"0"

 }},
  

{ "type": "Feature", "geometry": {"type": "Point", "coordinates": [15.3515,57.165556]},
"properties": {
		"name": "Åseda",
        "alias": "aseda",
		"id": "415",
		"color": "#e6dce1",
		"temperature":"0"

 }},
  

{ "type": "Feature", "geometry": {"type": "Point", "coordinates": [13.893763,57.317916]},
"properties": {
		"name": "Hillerstorp",
        "alias": "hillerstorp",
		"id": "177",
		"color": "#e6dce1",
		"temperature":"0"

 }},
  

{ "type": "Feature", "geometry": {"type": "Point", "coordinates": [13.107247,56.056427]},
"properties": {
		"name": "Stenestad",
        "alias": "stenestad",
		"id": "230",
		"color": "#e6dce1",
		"temperature":"0"

 }},
  

{ "type": "Feature", "geometry": {"type": "Point", "coordinates": [15.714291,58.313002]},
"properties": {
		"name": "Sturefors",
        "alias": "sturefors",
		"id": "133",
		"color": "#e6dce1",
		"temperature":"0"

 }},
  

{ "type": "Feature", "geometry": {"type": "Point", "coordinates": [13.143889,59.841667]},
"properties": {
		"name": "Sunne",
        "alias": "sunne",
		"id": "216",
		"color": "#e6dce1",
		"temperature":"0"

 }},
  

{ "type": "Feature", "geometry": {"type": "Point", "coordinates": [16.3415,58.6905]},
"properties": {
		"name": "Kolmården/Strömsfors",
        "alias": "stromsfors",
		"id": "97",
		"color": "#e6dce1",
		"temperature":"0"

 }},
  

{ "type": "Feature", "geometry": {"type": "Point", "coordinates": [17.63622778,59.20574722]},
"properties": {
		"name": "Södertälje/Centrum",
        "alias": "sodertalje",
		"id": "171",
		"color": "#e6dce1",
		"temperature":"0"

 }},
  

{ "type": "Feature", "geometry": {"type": "Point", "coordinates": [17.632020,59.847070]},
"properties": {
		"name": "Uppsala",
        "alias": "uppsala",
		"id": "4",
		"color": "#e6dce1",
		"temperature":"0"

 }},
  

{ "type": "Feature", "geometry": {"type": "Point", "coordinates": [16.408600000,56.5821100000]},
"properties": {
		"name": "Öland/Hagapark",
        "alias": "hagapark",
		"id": "20",
		"color": "#e6dce1",
		"temperature":"0"

 }},
  

{ "type": "Feature", "geometry": {"type": "Point", "coordinates": [15.8869,56.7587]},
"properties": {
		"name": "Nybro",
        "alias": "nybro",
		"id": "429",
		"color": "#e6dce1",
		"temperature":"0"

 }},
  

{ "type": "Feature", "geometry": {"type": "Point", "coordinates": [12.87443,57.62606]},
"properties": {
		"name": "Viskafors",
        "alias": "viskafors",
		"id": "434",
		"color": "#e6dce1",
		"temperature":"0"

 }},
  

{ "type": "Feature", "geometry": {"type": "Point", "coordinates": [13.5696,59.3996]},
"properties": {
		"name": "Karlstad/Kronoparken",
        "alias": "kronoparken",
		"id": "419",
		"color": "#e6dce1",
		"temperature":"0"

 }},
  

{ "type": "Feature", "geometry": {"type": "Point", "coordinates": [13.24986,58.48968]},
"properties": {
		"name": "Filsbäck",
        "alias": "filsback",
		"id": "430",
		"color": "#e6dce1",
		"temperature":"0"

 }},
  

{ "type": "Feature", "geometry": {"type": "Point", "coordinates": [17.56108,58.89958]},
"properties": {
		"name": "Trosa",
        "alias": "trosa",
		"id": "200",
		"color": "#e6dce1",
		"temperature":"0"

 }},
  

{ "type": "Feature", "geometry": {"type": "Point", "coordinates": [16.553067,58.571685]},
"properties": {
		"name": "Östra Husby",
        "alias": "ostrahusby",
		"id": "426",
		"color": "#e6dce1",
		"temperature":"0"

 }},
  

{ "type": "Feature", "geometry": {"type": "Point", "coordinates": [14.278391026857,59.530808722006]},
"properties": {
		"name": "Storfors/Centrum",
        "alias": "storfors",
		"id": "220",
		"color": "#e6dce1",
		"temperature":"0"

 }},
  

{ "type": "Feature", "geometry": {"type": "Point", "coordinates": [17.75206,59.61982]},
"properties": {
		"name": "Sigtuna",
        "alias": "sigtuna",
		"id": "424",
		"color": "#e6dce1",
		"temperature":"0"

 }},
  

{ "type": "Feature", "geometry": {"type": "Point", "coordinates": [18.1085,59.2537]},
"properties": {
		"name": "Sthlm/Sköndal",
        "alias": "skondal",
		"id": "441",
		"color": "#e6dce1",
		"temperature":"0"

 }},
  

{ "type": "Feature", "geometry": {"type": "Point", "coordinates": [18.25438,59.48372]},
"properties": {
		"name": "Sthlm/Åkersberga",
        "alias": "akersberga",
		"id": "165",
		"color": "#e6dce1",
		"temperature":"0"

 }},
  

{ "type": "Feature", "geometry": {"type": "Point", "coordinates": [16.36851944,59.01809722]},
"properties": {
		"name": "Valla",
        "alias": "valla",
		"id": "138",
		"color": "#e6dce1",
		"temperature":"0"

 }},
  

{ "type": "Feature", "geometry": {"type": "Point", "coordinates": [12.98017,55.59261]},
"properties": {
		"name": "Malmö/Dammfri",
        "alias": "dammfri",
		"id": "438",
		"color": "#e6dce1",
		"temperature":"0"

 }},
  

{ "type": "Feature", "geometry": {"type": "Point", "coordinates": [18.0308,59.5887]},
"properties": {
		"name": "Sthlm/Markim",
        "alias": "markim",
		"id": "241",
		"color": "#e6dce1",
		"temperature":"0"

 }},
  

{ "type": "Feature", "geometry": {"type": "Point", "coordinates": [13.0353,55.819422]},
"properties": {
		"name": "Dösjebro",
        "alias": "dosjebro",
		"id": "455",
		"color": "#e6dce1",
		"temperature":"0"

 }},
  

{ "type": "Feature", "geometry": {"type": "Point", "coordinates": [12.86375,57.1708]},
"properties": {
		"name": "Sundhult",
        "alias": "sundhult",
		"id": "292",
		"color": "#e6dce1",
		"temperature":"0"

 }},
  

{ "type": "Feature", "geometry": {"type": "Point", "coordinates": [13.0406,55.4758]},
"properties": {
		"name": "Vellinge/Eskilstorp",
        "alias": "eskilstorp",
		"id": "299",
		"color": "#e6dce1",
		"temperature":"0"

 }},
  

{ "type": "Feature", "geometry": {"type": "Point", "coordinates": [18.07830,59.27055]},
"properties": {
		"name": "Sthlm/Tallkrogen",
        "alias": "tallkrogen",
		"id": "492",
		"color": "#e6dce1",
		"temperature":"0"

 }},
  

{ "type": "Feature", "geometry": {"type": "Point", "coordinates": [15.85884,59.35275]},
"properties": {
		"name": "Arboga/Assartorp",
        "alias": "assartorp",
		"id": "479",
		"color": "#e6dce1",
		"temperature":"0"

 }},
  

{ "type": "Feature", "geometry": {"type": "Point", "coordinates": [18.06475,59.49638]},
"properties": {
		"name": "Täbykyrkby",
        "alias": "tabykyrkby",
		"id": "495",
		"color": "#e6dce1",
		"temperature":"0"

 }},
  

{ "type": "Feature", "geometry": {"type": "Point", "coordinates": [18.404996395111,59.760685449717]},
"properties": {
		"name": "Rimbo/Hagby",
        "alias": "hagby",
		"id": "498",
		"color": "#e6dce1",
		"temperature":"0"

 }},
  

{ "type": "Feature", "geometry": {"type": "Point", "coordinates": [18.898375,59.965487]},
"properties": {
		"name": "Väddö",
        "alias": "vaddo",
		"id": "505",
		"color": "#e6dce1",
		"temperature":"0"

 }},
  

{ "type": "Feature", "geometry": {"type": "Point", "coordinates": [13.70665,55.92532]},
"properties": {
		"name": "Hörby/Wästantorp",
        "alias": "wastantorp",
		"id": "504",
		"color": "#e6dce1",
		"temperature":"0"

 }},
  

{ "type": "Feature", "geometry": {"type": "Point", "coordinates": [14.880000,59.450000]},
"properties": {
		"name": "Gyttorp",
        "alias": "Gyttorp",
		"id": "507",
		"color": "#e6dce1",
		"temperature":"0"

 }},
  

{ "type": "Feature", "geometry": {"type": "Point", "coordinates": [12.982998,55.79595]},
"properties": {
		"name": "Hofterup",
        "alias": "hofterup",
		"id": "508",
		"color": "#e6dce1",
		"temperature":"0"

 }},
  

{ "type": "Feature", "geometry": {"type": "Point", "coordinates": [13.6350,55.6586]},
"properties": {
		"name": "Sjöbo/Björka",
        "alias": "bjorka",
		"id": "318",
		"color": "#e6dce1",
		"temperature":"0"

 }},
  

{ "type": "Feature", "geometry": {"type": "Point", "coordinates": [18.7003,59.7757]},
"properties": {
		"name": "Norrtälje/Dalby",
        "alias": "dalby",
		"id": "320",
		"color": "#e6dce1",
		"temperature":"0"

 }},
  

{ "type": "Feature", "geometry": {"type": "Point", "coordinates": [13.1048,57.8300]},
"properties": {
		"name": "Tärby",
        "alias": "tarby",
		"id": "322",
		"color": "#e6dce1",
		"temperature":"0"

 }},
  

{ "type": "Feature", "geometry": {"type": "Point", "coordinates": [13.05785,57.68021]},
"properties": {
		"name": "Borås/Målsryd",
        "alias": "malsryd",
		"id": "321",
		"color": "#e6dce1",
		"temperature":"0"

 }},
  

{ "type": "Feature", "geometry": {"type": "Point", "coordinates": [18.7815,59.458]},
"properties": {
		"name": "Sthlm/Lilla_Rävsön ",
        "alias": "lilla_ravson",
		"id": "460",
		"color": "#e6dce1",
		"temperature":"0"

 }},
  

{ "type": "Feature", "geometry": {"type": "Point", "coordinates": [17.16504,60.16619]},
"properties": {
		"name": "Östervåla",
        "alias": "ostervala",
		"id": "329",
		"color": "#e6dce1",
		"temperature":"0"

 }},
  

{ "type": "Feature", "geometry": {"type": "Point", "coordinates": [17.0445,58.6891]},
"properties": {
		"name": "Oxelösund",
        "alias": "oxelosund",
		"id": "324",
		"color": "#e6dce1",
		"temperature":"0"

 }},
  

{ "type": "Feature", "geometry": {"type": "Point", "coordinates": [17.9275,59.2162]},
"properties": {
		"name": "Sthlm/Tullinge",
        "alias": "tullinge",
		"id": "328",
		"color": "#e6dce1",
		"temperature":"0"

 }},
  

{ "type": "Feature", "geometry": {"type": "Point", "coordinates": [12.89223,59.12912]},
"properties": {
		"name": "Säffle/Höglunda",
        "alias": "saffle_hoglunda",
		"id": "577",
		"color": "#e6dce1",
		"temperature":"0"

 }},
  

{ "type": "Feature", "geometry": {"type": "Point", "coordinates": [14.1803,55.5940]},
"properties": {
		"name": "Simrishamn/Gyllebo",
        "alias": "gyllebo",
		"id": "332",
		"color": "#e6dce1",
		"temperature":"0"

 }},
  

{ "type": "Feature", "geometry": {"type": "Point", "coordinates": [14.3284,57.7080]},
"properties": {
		"name": "Tenhult",
        "alias": "tenhult",
		"id": "334",
		"color": "#e6dce1",
		"temperature":"0"

 }},
  

{ "type": "Feature", "geometry": {"type": "Point", "coordinates": [17.747658,59.484529]},
"properties": {
		"name": "Sthlm/Kungsängen",
        "alias": "kungsangen",
		"id": "468",
		"color": "#e6dce1",
		"temperature":"0"

 }},
  

{ "type": "Feature", "geometry": {"type": "Point", "coordinates": [15.6821,58.3712]},
"properties": {
		"name": "Linköping/Ullstämma",
        "alias": "ullstamma",
		"id": "337",
		"color": "#e6dce1",
		"temperature":"0"

 }},
  

{ "type": "Feature", "geometry": {"type": "Point", "coordinates": [11.29839,58.56750]},
"properties": {
		"name": "Hamburgsund/Amdal",
        "alias": "amdal",
		"id": "512",
		"color": "#e6dce1",
		"temperature":"0"

 }},
  

{ "type": "Feature", "geometry": {"type": "Point", "coordinates": [14.804260,56.915934]},
"properties": {
		"name": "Växjö/Östra lugnet",
        "alias": "ostralugnet",
		"id": "603",
		"color": "#e6dce1",
		"temperature":"0"

 }},
  

{ "type": "Feature", "geometry": {"type": "Point", "coordinates": [14.49112,59.308986]},
"properties": {
		"name": "Karlskoga",
        "alias": "karlskoga",
		"id": "130",
		"color": "#e6dce1",
		"temperature":"0"

 }},
  

{ "type": "Feature", "geometry": {"type": "Point", "coordinates": [14.853242,56.872890]},
"properties": {
		"name": "Växjö/Högstorp",
        "alias": "hogstorp",
		"id": "513",
		"color": "#e6dce1",
		"temperature":"0"

 }},
  

{ "type": "Feature", "geometry": {"type": "Point", "coordinates": [16.010009,58.185264]},
"properties": {
		"name": "Åtvidaberg/Söder",
        "alias": "atvidaberg_s",
		"id": "536",
		"color": "#e6dce1",
		"temperature":"0"

 }},
  

{ "type": "Feature", "geometry": {"type": "Point", "coordinates": [18.1871,59.3726]},
"properties": {
		"name": "Sthlm/Lidingö norr",
        "alias": "lidingo_norr",
		"id": "461",
		"color": "#e6dce1",
		"temperature":"0"

 }},
  

{ "type": "Feature", "geometry": {"type": "Point", "coordinates": [16.161733,58.599826]},
"properties": {
		"name": "Norrköping/Haga",
        "alias": "haga",
		"id": "8",
		"color": "#e6dce1",
		"temperature":"0"

 }},
  

{ "type": "Feature", "geometry": {"type": "Point", "coordinates": [12.40826,58.35497]},
"properties": {
		"name": "Vargön",
        "alias": "vargon",
		"id": "482",
		"color": "#e3d7db",
		"temperature":"1"

 }},
  

{ "type": "Feature", "geometry": {"type": "Point", "coordinates": [12.652569,56.980161]},
"properties": {
		"name": "Vessigebro",
        "alias": "vessigebro",
		"id": "105",
		"color": "#e3d7db",
		"temperature":"1"

 }},
  

{ "type": "Feature", "geometry": {"type": "Point", "coordinates": [15.99692778,58.20245]},
"properties": {
		"name": "Åtvidaberg/Centrum",
        "alias": "atvidaberg",
		"id": "176",
		"color": "#e3d7db",
		"temperature":"1"

 }},
  

{ "type": "Feature", "geometry": {"type": "Point", "coordinates": [11.432398,58.272412]},
"properties": {
		"name": "Lysekil",
        "alias": "lysekil",
		"id": "42",
		"color": "#e3d7db",
		"temperature":"1"

 }},
  

{ "type": "Feature", "geometry": {"type": "Point", "coordinates": [12.5786,57.6697]},
"properties": {
		"name": "Bollebygd",
        "alias": "bollebygd",
		"id": "272",
		"color": "#e3d7db",
		"temperature":"1"

 }},
  

{ "type": "Feature", "geometry": {"type": "Point", "coordinates": [14.121389,57.7]},
"properties": {
		"name": "Norrahammar",
        "alias": "norrahammar",
		"id": "274",
		"color": "#e3d7db",
		"temperature":"1"

 }},
  

{ "type": "Feature", "geometry": {"type": "Point", "coordinates": [16.941458,58.488138]},
"properties": {
		"name": "Arkösund",
        "alias": "arkosund",
		"id": "102",
		"color": "#e3d7db",
		"temperature":"1"

 }},
  

{ "type": "Feature", "geometry": {"type": "Point", "coordinates": [14.15279,56.01224]},
"properties": {
		"name": "Kristianstad/Helgedal",
        "alias": "helgedal",
		"id": "276",
		"color": "#e3d7db",
		"temperature":"1"

 }},
  

{ "type": "Feature", "geometry": {"type": "Point", "coordinates": [13.59238,59.40701]},
"properties": {
		"name": "Karlstad",
        "alias": "karlstad",
		"id": "43",
		"color": "#e3d7db",
		"temperature":"1"

 }},
  

{ "type": "Feature", "geometry": {"type": "Point", "coordinates": [12.7147,58.1866]},
"properties": {
		"name": "Nossebro",
        "alias": "nossebro",
		"id": "353",
		"color": "#e3d7db",
		"temperature":"1"

 }},
  

{ "type": "Feature", "geometry": {"type": "Point", "coordinates": [15.426944,57.551944]},
"properties": {
		"name": "Kråkshult",
        "alias": "krakshult",
		"id": "527",
		"color": "#e3d7db",
		"temperature":"1"

 }},
  

{ "type": "Feature", "geometry": {"type": "Point", "coordinates": [12.430649,57.542898]},
"properties": {
		"name": "Sätila",
        "alias": "satila",
		"id": "448",
		"color": "#e3d7db",
		"temperature":"1"

 }},
  

{ "type": "Feature", "geometry": {"type": "Point", "coordinates": [12.631609,56.966697]},
"properties": {
		"name": "Vessigebro/Dahlsgård",
        "alias": "Dahlsgard",
		"id": "522",
		"color": "#e3d7db",
		"temperature":"1"

 }},
  

{ "type": "Feature", "geometry": {"type": "Point", "coordinates": [14.556798,56.906255]},
"properties": {
		"name": "Alvesta",
        "alias": "alvesta",
		"id": "487",
		"color": "#e3d7db",
		"temperature":"1"

 }},
  

{ "type": "Feature", "geometry": {"type": "Point", "coordinates": [16.452295985234,57.278445788066]},
"properties": {
		"name": "Oskarshamn",
        "alias": "oskarshamn",
		"id": "245",
		"color": "#e3d7db",
		"temperature":"1"

 }},
  

{ "type": "Feature", "geometry": {"type": "Point", "coordinates": [12.306833075433,58.293745920149]},
"properties": {
		"name": "Trollhättan",
        "alias": "trollhattan",
		"id": "40",
		"color": "#e3d7db",
		"temperature":"1"

 }},
  

{ "type": "Feature", "geometry": {"type": "Point", "coordinates": [12.516802,57.924477]},
"properties": {
		"name": "Alingsås",
        "alias": "alingsas",
		"id": "89",
		"color": "#e3d7db",
		"temperature":"1"

 }},
  

{ "type": "Feature", "geometry": {"type": "Point", "coordinates": [12.57734,59.66402]},
"properties": {
		"name": "Arvika",
        "alias": "arvika",
		"id": "80",
		"color": "#e3d7db",
		"temperature":"1"

 }},
  

{ "type": "Feature", "geometry": {"type": "Point", "coordinates": [12.108461,57.658183]},
"properties": {
		"name": "Mölnlycke",
        "alias": "molnlycke",
		"id": "162",
		"color": "#e3d7db",
		"temperature":"1"

 }},
  

{ "type": "Feature", "geometry": {"type": "Point", "coordinates": [15.7797,58.4253]},
"properties": {
		"name": "Linköping/Linghem",
        "alias": "linghem",
		"id": "264",
		"color": "#e3d7db",
		"temperature":"1"

 }},
  

{ "type": "Feature", "geometry": {"type": "Point", "coordinates": [15.072,58.4023]},
"properties": {
		"name": "Skänninge",
        "alias": "skanninge",
		"id": "267",
		"color": "#e3d7db",
		"temperature":"1"

 }},
  

{ "type": "Feature", "geometry": {"type": "Point", "coordinates": [15.060266,58.18235]},
"properties": {
		"name": "Boxholm",
        "alias": "boxholm",
		"id": "137",
		"color": "#e3d7db",
		"temperature":"1"

 }},
  

{ "type": "Feature", "geometry": {"type": "Point", "coordinates": [12.8846998,56.4332008]},
"properties": {
		"name": "Båstad",
        "alias": "bastad",
		"id": "204",
		"color": "#e3d7db",
		"temperature":"1"

 }},
  

{ "type": "Feature", "geometry": {"type": "Point", "coordinates": [12.175694,57.457458]},
"properties": {
		"name": "Fjärås",
        "alias": "fjaras",
		"id": "194",
		"color": "#e3d7db",
		"temperature":"1"

 }},
  

{ "type": "Feature", "geometry": {"type": "Point", "coordinates": [13.53810,57.30278]},
"properties": {
		"name": "Gislaved",
        "alias": "gislaved",
		"id": "161",
		"color": "#e3d7db",
		"temperature":"1"

 }},
  

{ "type": "Feature", "geometry": {"type": "Point", "coordinates": [12.852071596155,56.667504860589]},
"properties": {
		"name": "Halmstad",
        "alias": "halmstad",
		"id": "240",
		"color": "#e3d7db",
		"temperature":"1"

 }},
  

{ "type": "Feature", "geometry": {"type": "Point", "coordinates": [15.918755555555,58.452180555555]},
"properties": {
		"name": "Gistad",
        "alias": "gistad",
		"id": "211",
		"color": "#e3d7db",
		"temperature":"1"

 }},
  

{ "type": "Feature", "geometry": {"type": "Point", "coordinates": [17.905247,59.357048]},
"properties": {
		"name": "Sthlm/Bromma",
        "alias": "bromma",
		"id": "148",
		"color": "#e3d7db",
		"temperature":"1"

 }},
  

{ "type": "Feature", "geometry": {"type": "Point", "coordinates": [12.476899066086,56.897459714395]},
"properties": {
		"name": "Falkenberg",
        "alias": "falkenberg",
		"id": "227",
		"color": "#e3d7db",
		"temperature":"1"

 }},
  

{ "type": "Feature", "geometry": {"type": "Point", "coordinates": [13.1521,56.9620]},
"properties": {
		"name": "Rydöbruk",
        "alias": "rydobruk",
		"id": "343",
		"color": "#e3d7db",
		"temperature":"1"

 }},
  

{ "type": "Feature", "geometry": {"type": "Point", "coordinates": [15.8596,58.4092]},
"properties": {
		"name": "Askeby",
        "alias": "askeby",
		"id": "579",
		"color": "#e3d7db",
		"temperature":"1"

 }},
  

{ "type": "Feature", "geometry": {"type": "Point", "coordinates": [16.2446,58.6111]},
"properties": {
		"name": "Norrköping/Lindö",
        "alias": "lindo",
		"id": "340",
		"color": "#e3d7db",
		"temperature":"1"

 }},
  

{ "type": "Feature", "geometry": {"type": "Point", "coordinates": [12.7820,58.1949]},
"properties": {
		"name": "Essunga",
        "alias": "essunga",
		"id": "214",
		"color": "#e3d7db",
		"temperature":"1"

 }},
  

{ "type": "Feature", "geometry": {"type": "Point", "coordinates": [14.2605,57.7714]},
"properties": {
		"name": "Jönköping/Öxnehaga",
        "alias": "oxnehaga",
		"id": "457",
		"color": "#e3d7db",
		"temperature":"1"

 }},
  

{ "type": "Feature", "geometry": {"type": "Point", "coordinates": [16.00876,58.42506]},
"properties": {
		"name": "Stocksäter",
        "alias": "stocksater",
		"id": "453",
		"color": "#e3d7db",
		"temperature":"1"

 }},
  

{ "type": "Feature", "geometry": {"type": "Point", "coordinates": [13.03922,55.60759]},
"properties": {
		"name": "Malmö/Kirseberg",
        "alias": "kirseberg",
		"id": "467",
		"color": "#e3d7db",
		"temperature":"1"

 }},
  

{ "type": "Feature", "geometry": {"type": "Point", "coordinates": [12.645266,56.858513]},
"properties": {
		"name": "Eftra",
        "alias": "eftra",
		"id": "163",
		"color": "#e3d7db",
		"temperature":"1"

 }},
  

{ "type": "Feature", "geometry": {"type": "Point", "coordinates": [11.680051723543,57.695145419010]},
"properties": {
		"name": "Göteborg/Grötö",
        "alias": "groto",
		"id": "225",
		"color": "#e3d7db",
		"temperature":"1"

 }},
  

{ "type": "Feature", "geometry": {"type": "Point", "coordinates": [14.993101,58.043137]},
"properties": {
		"name": "Tranås",
        "alias": "tranas",
		"id": "363",
		"color": "#e3d7db",
		"temperature":"1"

 }},
  

{ "type": "Feature", "geometry": {"type": "Point", "coordinates": [15.138857,58.316928]},
"properties": {
		"name": "Mjölby",
        "alias": "mjolby",
		"id": "459",
		"color": "#e3d7db",
		"temperature":"1"

 }},
  

{ "type": "Feature", "geometry": {"type": "Point", "coordinates": [12.10927,57.94677]},
"properties": {
		"name": "Älvängen",
        "alias": "alvangen",
		"id": "374",
		"color": "#e3d7db",
		"temperature":"1"

 }},
  

{ "type": "Feature", "geometry": {"type": "Point", "coordinates": [15.540042,56.204395]},
"properties": {
		"name": "Karlskrona/Nättraby",
        "alias": "nattraby",
		"id": "382",
		"color": "#e3d7db",
		"temperature":"1"

 }},
  

{ "type": "Feature", "geometry": {"type": "Point", "coordinates": [13.6994,58.6438]},
"properties": {
		"name": "Mariestad/Lugnås",
        "alias": "lugnas",
		"id": "380",
		"color": "#e3d7db",
		"temperature":"1"

 }},
  

{ "type": "Feature", "geometry": {"type": "Point", "coordinates": [14.10955,57.85732]},
"properties": {
		"name": "Bankeryd",
        "alias": "bankeryd",
		"id": "377",
		"color": "#e3d7db",
		"temperature":"1"

 }},
  

{ "type": "Feature", "geometry": {"type": "Point", "coordinates": [12.967393,55.579206]},
"properties": {
		"name": "Malmö/Bellevuegården",
        "alias": "bellevuegarden",
		"id": "471",
		"color": "#e3d7db",
		"temperature":"1"

 }},
  

{ "type": "Feature", "geometry": {"type": "Point", "coordinates": [14.093655555555,57.910105555555]},
"properties": {
		"name": "Habo",
        "alias": "habo",
		"id": "86",
		"color": "#e3d7db",
		"temperature":"1"

 }},
  

{ "type": "Feature", "geometry": {"type": "Point", "coordinates": [13.6468,58.38593]},
"properties": {
		"name": "Varnhem",
        "alias": "varnhem",
		"id": "387",
		"color": "#e3d7db",
		"temperature":"1"

 }},
  

{ "type": "Feature", "geometry": {"type": "Point", "coordinates": [12.93268,57.99500]},
"properties": {
		"name": "Asklanda",
        "alias": "asklanda",
		"id": "476",
		"color": "#e3d7db",
		"temperature":"1"

 }},
  

{ "type": "Feature", "geometry": {"type": "Point", "coordinates": [11.28282,58.43229]},
"properties": {
		"name": "Hunnebostrand/Ödby",
        "alias": "odby",
		"id": "497",
		"color": "#e3d7db",
		"temperature":"1"

 }},
  

{ "type": "Feature", "geometry": {"type": "Point", "coordinates": [12.258973,57.150825]},
"properties": {
		"name": "Varberg/Bläshammar",
        "alias": "blashammar",
		"id": "528",
		"color": "#e3d7db",
		"temperature":"1"

 }},
  

{ "type": "Feature", "geometry": {"type": "Point", "coordinates": [12.07608,57.58288]},
"properties": {
		"name": "Göteborg/Lindome 2",
        "alias": "lindome2",
		"id": "520",
		"color": "#e3d7db",
		"temperature":"1"

 }},
  

{ "type": "Feature", "geometry": {"type": "Point", "coordinates": [17.949711,59.276889]},
"properties": {
		"name": "Sthlm/Segeltorp",
        "alias": "segeltorp",
		"id": "546",
		"color": "#e3d7db",
		"temperature":"1"

 }},
  

{ "type": "Feature", "geometry": {"type": "Point", "coordinates": [13.34301,56.19471]},
"properties": {
		"name": "Perstorp/Oderljunga",
        "alias": "oderljunga",
		"id": "551",
		"color": "#e3d7db",
		"temperature":"1"

 }},
  

{ "type": "Feature", "geometry": {"type": "Point", "coordinates": [12.967718,56.807856]},
"properties": {
		"name": "Oskarström 2",
        "alias": "oskarstrom2",
		"id": "537",
		"color": "#e3d7db",
		"temperature":"1"

 }},
  

{ "type": "Feature", "geometry": {"type": "Point", "coordinates": [12.104620,57.61984]},
"properties": {
		"name": "Kållered",
        "alias": "kallered",
		"id": "398",
		"color": "#e3d7db",
		"temperature":"1"

 }},
  

{ "type": "Feature", "geometry": {"type": "Point", "coordinates": [16.78440,57.99606]},
"properties": {
		"name": "Västervik/Stora Askö",
        "alias": "stora_asko",
		"id": "564",
		"color": "#e3d7db",
		"temperature":"1"

 }},
  

{ "type": "Feature", "geometry": {"type": "Point", "coordinates": [11.851472,58.068509]},
"properties": {
		"name": "Stenungsund/Kopper",
        "alias": "kopper",
		"id": "555",
		"color": "#e3d7db",
		"temperature":"1"

 }},
  

{ "type": "Feature", "geometry": {"type": "Point", "coordinates": [11.179187,58.938346]},
"properties": {
		"name": "Strömstad",
        "alias": "stromstad",
		"id": "573",
		"color": "#e3d7db",
		"temperature":"1"

 }},
  

{ "type": "Feature", "geometry": {"type": "Point", "coordinates": [15.449416,58.282562]},
"properties": {
		"name": "Nykil",
        "alias": "nykil",
		"id": "562",
		"color": "#e3d7db",
		"temperature":"1"

 }},
  

{ "type": "Feature", "geometry": {"type": "Point", "coordinates": [16.641314,57.743118]},
"properties": {
		"name": "Västervik",
        "alias": "vastervik",
		"id": "572",
		"color": "#e3d7db",
		"temperature":"1"

 }},
  

{ "type": "Feature", "geometry": {"type": "Point", "coordinates": [11.9955,58.3570]},
"properties": {
		"name": "Uddevalla/Björbäck",
        "alias": "bjorback",
		"id": "400",
		"color": "#e3d7db",
		"temperature":"1"

 }},
  

{ "type": "Feature", "geometry": {"type": "Point", "coordinates": [12.740000000,55.9977000000]},
"properties": {
		"name": "Helsingborg/Råå",
        "alias": "raa",
		"id": "17",
		"color": "#e3d7db",
		"temperature":"1"

 }},
  

{ "type": "Feature", "geometry": {"type": "Point", "coordinates": [11.875426,58.259839]},
"properties": {
		"name": "Ljungskile/Resteröd",
        "alias": "resterod",
		"id": "399",
		"color": "#e3d7db",
		"temperature":"1"

 }},
  

{ "type": "Feature", "geometry": {"type": "Point", "coordinates": [12.477638,57.886232]},
"properties": {
		"name": "Västra_Bodarna",
        "alias": "vastra_bodarna",
		"id": "403",
		"color": "#e3d7db",
		"temperature":"1"

 }},
  

{ "type": "Feature", "geometry": {"type": "Point", "coordinates": [12.19731,58.18385]},
"properties": {
		"name": "Sjuntorp",
        "alias": "sjuntorp",
		"id": "404",
		"color": "#e3d7db",
		"temperature":"1"

 }},
  

{ "type": "Feature", "geometry": {"type": "Point", "coordinates": [13.128931,56.71909]},
"properties": {
		"name": "Simlångsdalen",
        "alias": "simlangsdalen",
		"id": "584",
		"color": "#e3d7db",
		"temperature":"1"

 }},
  

{ "type": "Feature", "geometry": {"type": "Point", "coordinates": [14.1739,58.2044]},
"properties": {
		"name": "Hjo/Överryd",
        "alias": "overryd",
		"id": "587",
		"color": "#e3d7db",
		"temperature":"1"

 }},
  

{ "type": "Feature", "geometry": {"type": "Point", "coordinates": [12.05965,58.56819]},
"properties": {
		"name": "Färgelanda/Stigen",
        "alias": "stigen",
		"id": "413",
		"color": "#e3d7db",
		"temperature":"1"

 }},
  

{ "type": "Feature", "geometry": {"type": "Point", "coordinates": [12.05487,58.65178]},
"properties": {
		"name": "Färgelanda/Högsäter",
        "alias": "hogsater",
		"id": "412",
		"color": "#e3d7db",
		"temperature":"1"

 }},
  

{ "type": "Feature", "geometry": {"type": "Point", "coordinates": [17.9690,59.3047]},
"properties": {
		"name": "Sthlm/Hägersten",
        "alias": "hagersten",
		"id": "601",
		"color": "#e3d7db",
		"temperature":"1"

 }},
  

{ "type": "Feature", "geometry": {"type": "Point", "coordinates": [13.09795,55.58891]},
"properties": {
		"name": "Malmö/Kvarnby",
        "alias": "kvarnby",
		"id": "418",
		"color": "#e3d7db",
		"temperature":"1"

 }},
  

{ "type": "Feature", "geometry": {"type": "Point", "coordinates": [11.294038,58.43958]},
"properties": {
		"name": "Hunnebostrand",
        "alias": "hunnebostrand",
		"id": "107",
		"color": "#e3d7db",
		"temperature":"1"

 }},
  

{ "type": "Feature", "geometry": {"type": "Point", "coordinates": [18.246462352035,59.253171623129]},
"properties": {
		"name": "Sthlm/Tyresö",
        "alias": "tyreso",
		"id": "41",
		"color": "#e3d7db",
		"temperature":"1"

 }},
  

{ "type": "Feature", "geometry": {"type": "Point", "coordinates": [14.804324,56.871351]},
"properties": {
		"name": "Växjö/Söder",
        "alias": "soder",
		"id": "10",
		"color": "#e3d7db",
		"temperature":"1"

 }},
  

{ "type": "Feature", "geometry": {"type": "Point", "coordinates": [12.996867604230,55.883022921332]},
"properties": {
		"name": "Billeberga",
        "alias": "billeberga",
		"id": "221",
		"color": "#e3d7db",
		"temperature":"1"

 }},
  

{ "type": "Feature", "geometry": {"type": "Point", "coordinates": [15.5270,58.4885]},
"properties": {
		"name": "Linköping/Berg",
        "alias": "bergsslussar",
		"id": "416",
		"color": "#e3d7db",
		"temperature":"1"

 }},
  

{ "type": "Feature", "geometry": {"type": "Point", "coordinates": [13.986611,55.942463]},
"properties": {
		"name": "Tollarp",
        "alias": "tollarp",
		"id": "196",
		"color": "#e3d7db",
		"temperature":"1"

 }},
  

{ "type": "Feature", "geometry": {"type": "Point", "coordinates": [14.083026,56.162747]},
"properties": {
		"name": "Hanaskog",
        "alias": "hanaskog",
		"id": "583",
		"color": "#e3d7db",
		"temperature":"1"

 }},
  

{ "type": "Feature", "geometry": {"type": "Point", "coordinates": [11.88234,57.62289]},
"properties": {
		"name": "Göteborg/näset",
        "alias": "naset",
		"id": "599",
		"color": "#e3d7db",
		"temperature":"1"

 }},
  

{ "type": "Feature", "geometry": {"type": "Point", "coordinates": [13.1026096,55.5533905]},
"properties": {
		"name": "Malmö/Oxie",
        "alias": "oxie",
		"id": "427",
		"color": "#e3d7db",
		"temperature":"1"

 }},
  

{ "type": "Feature", "geometry": {"type": "Point", "coordinates": [11.68957,57.98482]},
"properties": {
		"name": "Tjörn/Olsnäs",
        "alias": "olsnas",
		"id": "439",
		"color": "#e3d7db",
		"temperature":"1"

 }},
  

{ "type": "Feature", "geometry": {"type": "Point", "coordinates": [12.4,57.8]},
"properties": {
		"name": "Floda",
        "alias": "floda",
		"id": "442",
		"color": "#e3d7db",
		"temperature":"1"

 }},
  

{ "type": "Feature", "geometry": {"type": "Point", "coordinates": [15.421806,58.38361]},
"properties": {
		"name": "Linköping/Vikingstad",
        "alias": "vikingstad",
		"id": "411",
		"color": "#e3d7db",
		"temperature":"1"

 }},
  

{ "type": "Feature", "geometry": {"type": "Point", "coordinates": [15.6521,58.0303]},
"properties": {
		"name": "Kinda/kölefors",
        "alias": "kolefors",
		"id": "600",
		"color": "#e3d7db",
		"temperature":"1"

 }},
  

{ "type": "Feature", "geometry": {"type": "Point", "coordinates": [11.9470,57.5222]},
"properties": {
		"name": "Särö/Budskär",
        "alias": "budskar",
		"id": "289",
		"color": "#e3d7db",
		"temperature":"1"

 }},
  

{ "type": "Feature", "geometry": {"type": "Point", "coordinates": [12.090047,57.600848]},
"properties": {
		"name": "Göteborg/Lindome",
        "alias": "lindome",
		"id": "229",
		"color": "#e3d7db",
		"temperature":"1"

 }},
  

{ "type": "Feature", "geometry": {"type": "Point", "coordinates": [16.327,56.686]},
"properties": {
		"name": "Kalmar/Djurängen",
        "alias": "djurangen",
		"id": "291",
		"color": "#e3d7db",
		"temperature":"1"

 }},
  

{ "type": "Feature", "geometry": {"type": "Point", "coordinates": [17.988562,59.369812]},
"properties": {
		"name": "Sthlm/Solna 2",
        "alias": "solna_2",
		"id": "501",
		"color": "#e3d7db",
		"temperature":"1"

 }},
  

{ "type": "Feature", "geometry": {"type": "Point", "coordinates": [14.150596,56.034640]},
"properties": {
		"name": "Kristianstad/Centrum",
        "alias": "kristianstad",
		"id": "28",
		"color": "#e3d7db",
		"temperature":"1"

 }},
  

{ "type": "Feature", "geometry": {"type": "Point", "coordinates": [16.33457,56.67132]},
"properties": {
		"name": "Kalmar/Oxhagen",
        "alias": "oxhagen",
		"id": "499",
		"color": "#e3d7db",
		"temperature":"1"

 }},
  

{ "type": "Feature", "geometry": {"type": "Point", "coordinates": [14.8962,58.4476]},
"properties": {
		"name": "Vadstena",
        "alias": "vadstena",
		"id": "303",
		"color": "#e3d7db",
		"temperature":"1"

 }},
  

{ "type": "Feature", "geometry": {"type": "Point", "coordinates": [14.121300,56.040000]},
"properties": {
		"name": "Kristianstad/Nosaby-Balsby",
        "alias": "nosaby-balsby",
		"id": "326",
		"color": "#e3d7db",
		"temperature":"1"

 }},
  

{ "type": "Feature", "geometry": {"type": "Point", "coordinates": [13.7726,58.4862]},
"properties": {
		"name": "Berg",
        "alias": "berg",
		"id": "333",
		"color": "#e3d7db",
		"temperature":"1"

 }},
  

{ "type": "Feature", "geometry": {"type": "Point", "coordinates": [12.8791,57.5951]},
"properties": {
		"name": "Kinnarumma",
        "alias": "kinnarumma",
		"id": "336",
		"color": "#e3d7db",
		"temperature":"1"

 }},
  

{ "type": "Feature", "geometry": {"type": "Point", "coordinates": [16.364,56.747]},
"properties": {
		"name": "Kalmar/Hjälmö",
        "alias": "hjalmo",
		"id": "335",
		"color": "#e3d7db",
		"temperature":"1"

 }},
  

{ "type": "Feature", "geometry": {"type": "Point", "coordinates": [13.76993,56.165509]},
"properties": {
		"name": "Hässleholm/Kristinehem",
        "alias": "kristinehem",
		"id": "530",
		"color": "#e3d7db",
		"temperature":"1"

 }},
  

{ "type": "Feature", "geometry": {"type": "Point", "coordinates": [12.318634,57.374725]},
"properties": {
		"name": "Idala",
        "alias": "idala",
		"id": "521",
		"color": "#e3d7db",
		"temperature":"1"

 }},
  

{ "type": "Feature", "geometry": {"type": "Point", "coordinates": [18.2649,59.3261]},
"properties": {
		"name": "Sthlm/Nacka",
        "alias": "nacka",
		"id": "542",
		"color": "#e3d7db",
		"temperature":"1"

 }},
  

{ "type": "Feature", "geometry": {"type": "Point", "coordinates": [16.5825,57.3794]},
"properties": {
		"name": "Figeholm",
        "alias": "figeholm",
		"id": "509",
		"color": "#e3d7db",
		"temperature":"1"

 }},
  

{ "type": "Feature", "geometry": {"type": "Point", "coordinates": [15.6397,58.4736]},
"properties": {
		"name": "Linköping/Ekängen",
        "alias": "ekangen",
		"id": "543",
		"color": "#e3d7db",
		"temperature":"1"

 }},
  

{ "type": "Feature", "geometry": {"type": "Point", "coordinates": [12.260334,57.688290]},
"properties": {
		"name": "Landvetter",
        "alias": "landvetter",
		"id": "447",
		"color": "#e3d7db",
		"temperature":"1"

 }},
  

{ "type": "Feature", "geometry": {"type": "Point", "coordinates": [18.305068,57.468393]},
"properties": {
		"name": "Gotland/Mästerby",
        "alias": "masterby",
		"id": "525",
		"color": "#e3d7db",
		"temperature":"1"

 }},
  

{ "type": "Feature", "geometry": {"type": "Point", "coordinates": [15.662916,58.376761]},
"properties": {
		"name": "Linköping/Ekholmen",
        "alias": "ekholmen",
		"id": "189",
		"color": "#e3d7db",
		"temperature":"1"

 }},
  

{ "type": "Feature", "geometry": {"type": "Point", "coordinates": [12.470,57.175]},
"properties": {
		"name": "Skällinge",
        "alias": "skallinge",
		"id": "470",
		"color": "#e0d2d6",
		"temperature":"2"

 }},
  

{ "type": "Feature", "geometry": {"type": "Point", "coordinates": [13.790961,56.163747]},
"properties": {
		"name": "Hässleholm/Läreda",
        "alias": "hassleholm",
		"id": "62",
		"color": "#e0d2d6",
		"temperature":"2"

 }},
  

{ "type": "Feature", "geometry": {"type": "Point", "coordinates": [13.8212,58.4042]},
"properties": {
		"name": "Skövde/Billingen",
        "alias": "billingen",
		"id": "284",
		"color": "#e0d2d6",
		"temperature":"2"

 }},
  

{ "type": "Feature", "geometry": {"type": "Point", "coordinates": [16.3539,56.6903]},
"properties": {
		"name": "Kalmar/Berga",
        "alias": "kalmar",
		"id": "208",
		"color": "#e0d2d6",
		"temperature":"2"

 }},
  

{ "type": "Feature", "geometry": {"type": "Point", "coordinates": [12.04005,57.45014]},
"properties": {
		"name": "Kungsbacka",
        "alias": "kungsbacka",
		"id": "49",
		"color": "#e0d2d6",
		"temperature":"2"

 }},
  

{ "type": "Feature", "geometry": {"type": "Point", "coordinates": [11.928,58.214]},
"properties": {
		"name": "Ljungskile",
        "alias": "ljungskile",
		"id": "52",
		"color": "#e0d2d6",
		"temperature":"2"

 }},
  

{ "type": "Feature", "geometry": {"type": "Point", "coordinates": [15.003738,59.070888]},
"properties": {
		"name": "Brändåsen",
        "alias": "brandasen",
		"id": "124",
		"color": "#e0d2d6",
		"temperature":"2"

 }},
  

{ "type": "Feature", "geometry": {"type": "Point", "coordinates": [12.649215,56.137988]},
"properties": {
		"name": "Viken",
        "alias": "viken",
		"id": "502",
		"color": "#e0d2d6",
		"temperature":"2"

 }},
  

{ "type": "Feature", "geometry": {"type": "Point", "coordinates": [13.1169996,56.1338005]},
"properties": {
		"name": "Klippan",
        "alias": "klippan",
		"id": "359",
		"color": "#e0d2d6",
		"temperature":"2"

 }},
  

{ "type": "Feature", "geometry": {"type": "Point", "coordinates": [11.793569,57.740719]},
"properties": {
		"name": "Göteborg/Lilleby",
        "alias": "lilleby",
		"id": "143",
		"color": "#e0d2d6",
		"temperature":"2"

 }},
  

{ "type": "Feature", "geometry": {"type": "Point", "coordinates": [11.9865,57.6971]},
"properties": {
		"name": "Göteborg/City",
        "alias": "goteborg",
		"id": "2",
		"color": "#e0d2d6",
		"temperature":"2"

 }},
  

{ "type": "Feature", "geometry": {"type": "Point", "coordinates": [11.932908,57.754608]},
"properties": {
		"name": "Göteborg/Tuve",
        "alias": "tuve",
		"id": "109",
		"color": "#e0d2d6",
		"temperature":"2"

 }},
  

{ "type": "Feature", "geometry": {"type": "Point", "coordinates": [13.8662,58.3886]},
"properties": {
		"name": "Skövde/Östermalm",
        "alias": "ostermalm",
		"id": "388",
		"color": "#e0d2d6",
		"temperature":"2"

 }},
  

{ "type": "Feature", "geometry": {"type": "Point", "coordinates": [16.23845,56.67494]},
"properties": {
		"name": "Kalmar/Smedby",
        "alias": "smedby",
		"id": "385",
		"color": "#e0d2d6",
		"temperature":"2"

 }},
  

{ "type": "Feature", "geometry": {"type": "Point", "coordinates": [12.537949,57.932144]},
"properties": {
		"name": "Alingsås/Centrum",
        "alias": "alingsas_c",
		"id": "384",
		"color": "#e0d2d6",
		"temperature":"2"

 }},
  

{ "type": "Feature", "geometry": {"type": "Point", "coordinates": [11.97791,58.54611]},
"properties": {
		"name": "Färgelanda/Ödeborg",
        "alias": "odeborg",
		"id": "414",
		"color": "#e0d2d6",
		"temperature":"2"

 }},
  

{ "type": "Feature", "geometry": {"type": "Point", "coordinates": [11.7792,57.9733]},
"properties": {
		"name": "Timmervik/Kode",
        "alias": "kode",
		"id": "422",
		"color": "#e0d2d6",
		"temperature":"2"

 }},
  

{ "type": "Feature", "geometry": {"type": "Point", "coordinates": [12.0392,57.6463]},
"properties": {
		"name": "Mölndal/Hulelyckan",
        "alias": "hulelyckan",
		"id": "423",
		"color": "#e0d2d6",
		"temperature":"2"

 }},
  

{ "type": "Feature", "geometry": {"type": "Point", "coordinates": [15.21509,59.27700]},
"properties": {
		"name": "Örebro/Centrum",
        "alias": "orebro",
		"id": "18",
		"color": "#e0d2d6",
		"temperature":"2"

 }},
  

{ "type": "Feature", "geometry": {"type": "Point", "coordinates": [11.627568,58.011761]},
"properties": {
		"name": "Tjörn",
        "alias": "tjorn",
		"id": "74",
		"color": "#e0d2d6",
		"temperature":"2"

 }},
  

{ "type": "Feature", "geometry": {"type": "Point", "coordinates": [12.01363,57.92577]},
"properties": {
		"name": "Romelanda/Kroken",
        "alias": "romelanda",
		"id": "435",
		"color": "#e0d2d6",
		"temperature":"2"

 }},
  

{ "type": "Feature", "geometry": {"type": "Point", "coordinates": [14.146822,57.4986]},
"properties": {
		"name": "Vaggeryd",
        "alias": "vaggeryd",
		"id": "167",
		"color": "#e0d2d6",
		"temperature":"2"

 }},
  

{ "type": "Feature", "geometry": {"type": "Point", "coordinates": [12.12660,57.69434]},
"properties": {
		"name": "Göteborg/Partille",
        "alias": "partille",
		"id": "228",
		"color": "#e0d2d6",
		"temperature":"2"

 }},
  

{ "type": "Feature", "geometry": {"type": "Point", "coordinates": [11.8301,57.9864]},
"properties": {
		"name": "Stenungsund/Jörlanda",
        "alias": "jorlanda",
		"id": "506",
		"color": "#e0d2d6",
		"temperature":"2"

 }},
  

{ "type": "Feature", "geometry": {"type": "Point", "coordinates": [14.876904,57.523347]},
"properties": {
		"name": "Björköby",
        "alias": "bjorkoby",
		"id": "323",
		"color": "#e0d2d6",
		"temperature":"2"

 }},
  

{ "type": "Feature", "geometry": {"type": "Point", "coordinates": [11.995364,57.687306]},
"properties": {
		"name": "Göteborg/Krokslätt",
        "alias": "krokslatt",
		"id": "314",
		"color": "#e0d2d6",
		"temperature":"2"

 }},
  

{ "type": "Feature", "geometry": {"type": "Point", "coordinates": [11.899048,57.903376]},
"properties": {
		"name": "Kareby",
        "alias": "kareby",
		"id": "547",
		"color": "#e0d2d6",
		"temperature":"2"

 }},
  

{ "type": "Feature", "geometry": {"type": "Point", "coordinates": [11.982605,57.667379]},
"properties": {
		"name": "Mölndal/Toltorpsdalen",
        "alias": "toltorpsdalen",
		"id": "605",
		"color": "#e0d2d6",
		"temperature":"2"

 }},
  

{ "type": "Feature", "geometry": {"type": "Point", "coordinates": [13.503727,59.328461]},
"properties": {
		"name": "Hammarö",
        "alias": "hammaro",
		"id": "116",
		"color": "#decdd1",
		"temperature":"3"

 }},
  

{ "type": "Feature", "geometry": {"type": "Point", "coordinates": [12.02138,57.81904]},
"properties": {
		"name": "Surte",
        "alias": "surte",
		"id": "491",
		"color": "#decdd1",
		"temperature":"3"

 }},
  

{ "type": "Feature", "geometry": {"type": "Point", "coordinates": [13.219588888888,55.522544444444]},
"properties": {
		"name": "Svedala",
        "alias": "svedala",
		"id": "210",
		"color": "#decdd1",
		"temperature":"3"

 }},
  

{ "type": "Feature", "geometry": {"type": "Point", "coordinates": [12.959132,57.709527]},
"properties": {
		"name": "Borås",
        "alias": "boras",
		"id": "19",
		"color": "#decdd1",
		"temperature":"3"

 }},
  

{ "type": "Feature", "geometry": {"type": "Point", "coordinates": [11.87127,58.09153]},
"properties": {
		"name": "Stenungsund/Evenås",
        "alias": "evenas",
		"id": "304",
		"color": "#decdd1",
		"temperature":"3"

 }},
  

{ "type": "Feature", "geometry": {"type": "Point", "coordinates": [12.006734,57.713808]},
"properties": {
		"name": "Göteborg/Östra",
        "alias": "goteborg_ostra",
		"id": "347",
		"color": "#dbc8cc",
		"temperature":"4"

 }}
  

]}
